[
{"id":"1","name":"Attleboro","street1":"252 Washington St","street2":"Ste. A-100","phone":"(508) 399-8811","city":"South Attleboro","state":"MA","zip":"2703","fullStreet":"252 Washington St Ste. A-100","latitude":"41.9221409","longitude":"-71.35747269"},
{"id":"2","name":"Cape Cod","street1":"155 Enterprise Rd","street2":"","phone":"(508) 775-0001","city":"Hyannis","state":"MA","zip":"2601","fullStreet":"155 Enterprise Rd","latitude":"41.67060802","longitude":"-70.30059005"},
{"id":"3","name":"Chicopee","street1":"501 Memorial Dr","street2":"","phone":"(413) 592-4500","city":"Chicopee","state":"MA","zip":"1020","fullStreet":"501 Memorial Dr","latitude":"42.17163969","longitude":"-72.57685937"},
{"id":"4","name":"Dedham","street1":"140 Providence Hwy","street2":"","phone":"(781) 320-8127","city":"Dedham","state":"MA","zip":"2026","fullStreet":"140 Providence Hwy","latitude":"42.2625701","longitude":"-71.16855102"},
{"id":"5","name":"Framingham","street1":"359 Cochituate Rd","street2":"","phone":"(508) 875-0405","city":"Framingham","state":"MA","zip":"1701","fullStreet":"359 Cochituate Rd","latitude":"42.30473845","longitude":"-71.3967394"},
{"id":"6","name":"Marlborough (MA)","street1":"36 Apex Drive","street2":"","phone":"(508) 251-0402","city":"Marlborough","state":"MA","zip":"1752","fullStreet":"36 Apex Drive","latitude":"42.34939777","longitude":"-71.54680728"},
{"id":"7","name":"Northshore Mall","street1":"210 Andover St Unit F105","street2":"Space F105","phone":"(978) 977-0740","city":"Peabody","state":"MA","zip":"1960","fullStreet":"210 Andover St Unit F105 Space F105","latitude":"42.54021957","longitude":"-70.94814974"},
{"id":"8","name":"Seekonk","street1":"1100 Fall River Ave","street2":"","phone":"(508) 336-4396","city":"Seekonk","state":"MA","zip":"2771","fullStreet":"1100 Fall River Ave","latitude":"41.79506443","longitude":"-71.32908411"},
{"id":"9","name":"Westborough","street1":"286 Turnpike Rd","street2":"","phone":"(508) 366-8407","city":"Westborough","state":"MA","zip":"1581","fullStreet":"286 Turnpike Rd","latitude":"42.28322072","longitude":"-71.63910558"},
{"id":"10","name":"Worcester","street1":"80 Gold Star Blvd","street2":"","phone":"(508) 459-9852","city":"Worcester","state":"MA","zip":"1606","fullStreet":"80 Gold Star Blvd","latitude":"42.2907528","longitude":"-71.80320376"},
{"id":"11","name":"Arnold","street1":"1 Arnold Mall","street2":"","phone":"","city":"Arnold","state":"MO","zip":"63010","fullStreet":"1 Arnold Mall","latitude":"38.444521","longitude":"-90.3730955"},
{"id":"12","name":"Barry Road","street1":"6501 NW Barry Rd","street2":"","phone":"(816) 587-0411","city":"Kansas City","state":"MO","zip":"64154","fullStreet":"6501 NW Barry Rd","latitude":"39.2463032","longitude":"-94.6539588"},
{"id":"13","name":"Battlefield Mall","street1":"2825 S Glenstone Ave Ste VC-11","street2":"","phone":"","city":"Springfield","state":"MO","zip":"65804","fullStreet":"2825 S Glenstone Ave Ste VC-11","latitude":"37.1624926","longitude":"-93.2654777"},
{"id":"14","name":"Blue Springs","street1":"951 NE Coronado Dr","street2":"","phone":"(816) 220-2321","city":"Blue Springs","state":"MO","zip":"64014","fullStreet":"951 NE Coronado Dr","latitude":"39.0262126","longitude":"-94.250743"},
{"id":"15","name":"Branson","street1":"607 W Main St","street2":"","phone":"(417) 334-2723","city":"Branson","state":"MO","zip":"65616","fullStreet":"607 W Main St","latitude":"36.6446461","longitude":"-93.2235692"},
{"id":"16","name":"Brentwood (MO)","street1":"8590 Eager Rd","street2":"","phone":"(314) 968-5400","city":"Brentwood","state":"MO","zip":"63144","fullStreet":"8590 Eager Rd","latitude":"38.6287487","longitude":"-90.3405797"},
{"id":"17","name":"Cape Girardeau","street1":"3333 Gordonville Rd","street2":"","phone":"","city":"Cape Girardeau","state":"MO","zip":"63703","fullStreet":"3333 Gordonville Rd","latitude":"37.3019378","longitude":"-89.5724847"},
{"id":"18","name":"Chesterfield Valley","street1":"17365 Chesterfield Airport Rd","street2":"","phone":"(636) 536-6933","city":"Chesterfield","state":"MO","zip":"63005","fullStreet":"17365 Chesterfield Airport Rd","latitude":"38.6688677","longitude":"-90.6043645"},
{"id":"19","name":"Des Peres","street1":"11997 Manchester Rd","street2":"","phone":"(314) 821-3452","city":"Des Peres","state":"MO","zip":"63131","fullStreet":"11997 Manchester Rd","latitude":"38.6024791","longitude":"-90.4355242"},
{"id":"20","name":"Ellisville","street1":"304 Clarkson Rd","street2":"","phone":"(636) 527-0016","city":"Ellisville","state":"MO","zip":"63011","fullStreet":"304 Clarkson Rd","latitude":"38.6029631","longitude":"-90.5861682"},
{"id":"21","name":"Glenstone","street1":"3700 S Glenstone Ave","street2":"","phone":"(417) 890-5800","city":"Springfield","state":"MO","zip":"65804","fullStreet":"3700 S Glenstone Ave","latitude":"37.1465011","longitude":"-93.2558579"},
{"id":"22","name":"Hampton & Chippewa","street1":"3801 Hampton Ave","street2":"","phone":"(314) 832-2748","city":"Saint Louis","state":"MO","zip":"63109","fullStreet":"3801 Hampton Ave","latitude":"38.59471019","longitude":"-90.29425208"},
{"id":"23","name":"Independence Center","street1":"18785 E 39th St S","street2":"","phone":"(816) 795-7775","city":"Independence","state":"MO","zip":"64057","fullStreet":"18785 E 39th St S","latitude":"39.0475333","longitude":"-94.3574627"},
{"id":"24","name":"Jefferson City","street1":"3407 Missouri Blvd","street2":"","phone":"(573) 638-0151","city":"Jefferson City","state":"MO","zip":"65109","fullStreet":"3407 Missouri Blvd","latitude":"38.581108","longitude":"-92.2437258"},
{"id":"25","name":"Lee's Summit","street1":"690 Nw Blue Pkwy","street2":"","phone":"(816) 246-2948","city":"Lees Summit","state":"MO","zip":"64086","fullStreet":"690 Nw Blue Pkwy","latitude":"38.927219","longitude":"-94.4015228"},
{"id":"26","name":"Liberty","street1":"110 N Conistor Ln","street2":"","phone":"(816) 415-2212","city":"Liberty","state":"MO","zip":"64068","fullStreet":"110 N Conistor Ln","latitude":"39.24451332","longitude":"-94.4514122"},
{"id":"27","name":"Lindenwood University","street1":"209 S Kingshighway St","street2":"Spellman Student Center","phone":"(636) 255-2241","city":"Saint Charles","state":"MO","zip":"63301","fullStreet":"209 S Kingshighway St Spellman Student Center","latitude":"38.7892509","longitude":"-90.5040801"},
{"id":"28","name":"Mid Rivers Mall Dr & 94","street1":"6180 Mid Rivers Mall Dr","street2":"","phone":"(636) 447-3881","city":"Saint Peters","state":"MO","zip":"63304","fullStreet":"6180 Mid Rivers Mall Dr","latitude":"38.7416763","longitude":"-90.6336833"},
{"id":"29","name":"Missouri State University","street1":"901 S National","street2":"Plaster Student Union","phone":"(417) 836-4211","city":"Springfield","state":"MO","zip":"65897","fullStreet":"901 S National Plaster Student Union","latitude":"37.198556","longitude":"-93.2785727"},
{"id":"30","name":"Missouri University of Science & Technology","street1":"1346 N Bishop Ave","street2":"","phone":"(573) 341-5436","city":"Rolla","state":"MO","zip":"65409","fullStreet":"1346 N Bishop Ave","latitude":"37.95395515","longitude":"-91.77700979"},
{"id":"31","name":"Missouri Western State University","street1":"4525 Downs Dr","street2":"Blum Student Union Food Court","phone":"(806) 271-4426","city":"Saint Joseph","state":"MO","zip":"64507","fullStreet":"4525 Downs Dr Blum Student Union Food Court","latitude":"39.72867013","longitude":"-94.75989037"},
{"id":"32","name":"Northpark Mall (MO)","street1":"101 N Range Line Rd","street2":"416 Northpark Mall","phone":"(417) 781-7123","city":"Joplin","state":"MO","zip":"64801","fullStreet":"101 N Range Line Rd 416 Northpark Mall","latitude":"37.09083934","longitude":"-94.47690267"},
{"id":"33","name":"O'Fallon","street1":"2106 Highway K","street2":"","phone":"(636) 272-5346","city":"O Fallon","state":"MO","zip":"63368","fullStreet":"2106 Highway K","latitude":"38.7793414","longitude":"-90.6992598"},
{"id":"34","name":"Range Line Road","street1":"2127 S Range Line Rd","street2":"","phone":"(417) 781-6000","city":"Joplin","state":"MO","zip":"64804","fullStreet":"2127 S Range Line Rd","latitude":"37.06211524","longitude":"-94.47802909"},
{"id":"35","name":"South County","street1":"4125 Lemay Ferry Rd","street2":"","phone":"(314) 845-3499","city":"Saint Louis","state":"MO","zip":"63129","fullStreet":"4125 Lemay Ferry Rd","latitude":"38.5047954","longitude":"-90.3282239"},
{"id":"36","name":"Southeast Missouri State University","street1":"1 University Plz","street2":"MS 1700","phone":"(573) 651-2569","city":"Cape Girardeau","state":"MO","zip":"63701","fullStreet":"1 University Plz MS 1700","latitude":"37.3128963","longitude":"-89.5308913"},
{"id":"37","name":"St. Joseph","street1":"5303 N Belt Hwy","street2":"","phone":"(816) 232-5500","city":"Saint Joseph","state":"MO","zip":"64506","fullStreet":"5303 N Belt Hwy","latitude":"39.8145275","longitude":"-94.8144224"},
{"id":"38","name":"St. Louis College of Pharmacy","street1":"4588 Parkview Pl","street2":"Parkview Cafe","phone":"(314) 446-8156","city":"Saint Louis","state":"MO","zip":"63110","fullStreet":"4588 Parkview Pl Parkview Cafe","latitude":"38.63741768","longitude":"-90.26199804"},
{"id":"39","name":"St. Louis University","street1":"20 N Grand Blvd","street2":"Busch Student Center","phone":"(314) 977-1547","city":"Saint Louis","state":"MO","zip":"63103","fullStreet":"20 N Grand Blvd Busch Student Center","latitude":"38.6578163","longitude":"-90.3704201"},
{"id":"40","name":"Stadium Boulevard","street1":"305 N Stadium Blvd","street2":"","phone":"(573) 445-6627","city":"Columbia","state":"MO","zip":"65203","fullStreet":"305 N Stadium Blvd","latitude":"38.9593836","longitude":"-92.3721455"},
{"id":"41","name":"Sunset Hills","street1":"10706 Sunset Hills Plz","street2":"","phone":"(314) 822-9500","city":"Saint Louis","state":"MO","zip":"63127","fullStreet":"10706 Sunset Hills Plz","latitude":"38.552248","longitude":"-90.4077177"},
{"id":"42","name":"Sunshine & Campbell","street1":"425 W Sunshine St","street2":"","phone":"(417) 866-4232","city":"Springfield","state":"MO","zip":"65807","fullStreet":"425 W Sunshine St","latitude":"37.1826076","longitude":"-93.2958683"},
{"id":"43","name":"Truman State University","street1":"901 S. Franklin St.","street2":"","phone":"(660) 785-4197","city":"Kirksville","state":"MO","zip":"63501","fullStreet":"901 S. Franklin St.","latitude":"40.2011574","longitude":"-92.5832881"},
{"id":"44","name":"University of Central Missouri","street1":"517 South Holden","street2":"Elliott University Union","phone":"(660) 543-4300","city":"Warrensburg","state":"MO","zip":"64093","fullStreet":"517 South Holden Elliott University Union","latitude":"38.75684242","longitude":"-93.74062389"},
{"id":"45","name":"University of Missouri - Kansas City","street1":"5100 Cherry St","street2":"Student Union Bldg. #216","phone":"(816) 235-5080","city":"Kansas City","state":"MO","zip":"64110","fullStreet":"5100 Cherry St Student Union Bldg. #216","latitude":"39.03450504","longitude":"-94.57280579"},
{"id":"46","name":"Ward Parkway","street1":"8551 State Line Rd","street2":"","phone":"(816) 361-8800","city":"Kansas City","state":"MO","zip":"64114","fullStreet":"8551 State Line Rd","latitude":"38.9735522","longitude":"-94.6077213"},
{"id":"47","name":"Wentzville","street1":"1918 Wentzville Pkwy","street2":"","phone":"(636) 639-2357","city":"Wentzville","state":"MO","zip":"63385","fullStreet":"1918 Wentzville Pkwy","latitude":"38.8159302","longitude":"-90.8759671"},
{"id":"48","name":"West County Center","street1":"184 W County Ctr Spc N","street2":"","phone":"(314) 965-0103","city":"Des Peres","state":"MO","zip":"63131","fullStreet":"184 W County Ctr Spc N","latitude":"38.5997343","longitude":"-90.4469517"},
{"id":"49","name":"104th & Federal","street1":"10280 Federal Blvd","street2":"","phone":"(720) 887-1676","city":"Denver","state":"CO","zip":"80260","fullStreet":"10280 Federal Blvd","latitude":"39.8832363","longitude":"-105.0244607"},
{"id":"50","name":"120th & Washington","street1":"1301 E 120th Ave","street2":"","phone":"(720) 889-1471","city":"Thornton","state":"CO","zip":"80233","fullStreet":"1301 E 120th Ave","latitude":"39.9144861","longitude":"-104.9709096"},
{"id":"51","name":"52nd and Wadsworth","street1":"5236 Wadsworth Byp","street2":"","phone":"(303) 420-3000","city":"Arvada","state":"CO","zip":"80002","fullStreet":"5236 Wadsworth Byp","latitude":"39.7914499","longitude":"-105.0800097"},
{"id":"52","name":"Alameda Avenue","street1":"14310 E Alameda Ave","street2":"","phone":"(303) 366-0779","city":"Aurora","state":"CO","zip":"80012","fullStreet":"14310 E Alameda Ave","latitude":"39.7107408","longitude":"-104.8212705"},
{"id":"53","name":"Aspen Grove","street1":"7301 S Santa Fe Dr Unit 900","street2":"","phone":"(303) 797-9564","city":"Littleton","state":"CO","zip":"80120","fullStreet":"7301 S Santa Fe Dr Unit 900","latitude":"39.5862282","longitude":"-105.0251106"},
{"id":"54","name":"Belleview Shores","street1":"5260 S Wadsworth Blvd","street2":"","phone":"(720) 922-1999","city":"Littleton","state":"CO","zip":"80123","fullStreet":"5260 S Wadsworth Blvd","latitude":"39.62046163","longitude":"-105.0905582"},
{"id":"55","name":"Belmar","street1":"565 S Vance St","street2":"","phone":"(303) 927-6303","city":"Lakewood","state":"CO","zip":"80226","fullStreet":"565 S Vance St","latitude":"39.70610514","longitude":"-105.079843"},
{"id":"56","name":"Brighton","street1":"2035 Prairie Center Pkwy","street2":"","phone":"(303) 655-1404","city":"Brighton","state":"CO","zip":"80601","fullStreet":"2035 Prairie Center Pkwy","latitude":"39.9568566","longitude":"-104.7769337"},
{"id":"57","name":"Broadway & Dartmouth","street1":"3085 S Broadway","street2":"","phone":"(303) 781-1115","city":"Englewood","state":"CO","zip":"80113","fullStreet":"3085 S Broadway","latitude":"39.66082378","longitude":"-104.9880318"},
{"id":"58","name":"C470 & Kipling","street1":"9976 W Remington Pl","street2":"","phone":"7209222070","city":"Littleton","state":"CO","zip":"80128","fullStreet":"9976 W Remington Pl","latitude":"39.56335308","longitude":"-105.1093794"},
{"id":"59","name":"Castle Rock","street1":"346 Metzler Dr","street2":"","phone":"(303) 660-0999","city":"Castle Rock","state":"CO","zip":"80108","fullStreet":"346 Metzler Dr","latitude":"39.4083799","longitude":"-104.8589496"},
{"id":"60","name":"Chambers and Parker Road","street1":"5600 S Parker Rd","street2":"","phone":"(303) 766-9170","city":"Aurora","state":"CO","zip":"80015","fullStreet":"5600 S Parker Rd","latitude":"39.6157512","longitude":"-104.8160751"},
{"id":"61","name":"Chapel Hills Mall","street1":"1710 Briargate Blvd Ste 456","street2":"","phone":"(719) 593-9493","city":"Colorado Springs","state":"CO","zip":"80920","fullStreet":"1710 Briargate Blvd Ste 456","latitude":"38.94536786","longitude":"-104.7975516"},
{"id":"62","name":"Cherry Creek","street1":"430 S Colorado Blvd","street2":"","phone":"(303) 333-3828","city":"Denver","state":"CO","zip":"80246","fullStreet":"430 S Colorado Blvd","latitude":"39.70830948","longitude":"-104.9399803"},
{"id":"63","name":"Colfax & Garfield Drive-Thru Only","street1":"3725 E Colfax Ave","street2":"","phone":"(303) 377-1117","city":"Denver","state":"CO","zip":"80206","fullStreet":"3725 E Colfax Ave","latitude":"39.7403094","longitude":"-104.9433807"},
{"id":"64","name":"Colorado Mesa University","street1":"1455 N 12th St","street2":"University Center","phone":"(970) 248-1742","city":"Grand Junction","state":"CO","zip":"81501","fullStreet":"1455 N 12th St University Center","latitude":"39.07212602","longitude":"-108.5475825"},
{"id":"65","name":"Denver International Airport","street1":"8500 Pena Blvd","street2":"","phone":"(303) 342-6646","city":"Denver","state":"CO","zip":"80249","fullStreet":"8500 Pena Blvd","latitude":"39.8519259","longitude":"-104.6740448"},
{"id":"66","name":"Denver West","street1":"14730 W. Colfax Avenue","street2":"","phone":"(303) 271-1131","city":"Lakewood","state":"CO","zip":"80401","fullStreet":"14730 W. Colfax Avenue","latitude":"39.73234868","longitude":"-105.1641931"},
{"id":"67","name":"Flatiron","street1":"2580 Coalton Rd","street2":"","phone":"(303) 410-7050","city":"Superior","state":"CO","zip":"80027","fullStreet":"2580 Coalton Rd","latitude":"39.9282835","longitude":"-105.1394278"},
{"id":"68","name":"Fort Collins","street1":"3605 S College Ave","street2":"","phone":"(970) 377-9644","city":"Fort Collins","state":"CO","zip":"80525","fullStreet":"3605 S College Ave","latitude":"40.5377494","longitude":"-105.0777759"},
{"id":"69","name":"Fountain","street1":"7925 Fountain Mesa Rd","street2":"","phone":"(719) 312-3123","city":"Fountain","state":"CO","zip":"80817","fullStreet":"7925 Fountain Mesa Rd","latitude":"38.71893976","longitude":"-104.7009701"},
{"id":"70","name":"Garden of the Gods","street1":"575 Garden of the Gods Rd","street2":"","phone":"(719) 531-7320","city":"Colorado Springs","state":"CO","zip":"80907","fullStreet":"575 Garden of the Gods Rd","latitude":"38.89672519","longitude":"-104.833693"},
{"id":"71","name":"Gardens on Havana","street1":"1198 S Havana St","street2":"","phone":"(303) 745-7872","city":"Aurora","state":"CO","zip":"80012","fullStreet":"1198 S Havana St","latitude":"39.6951241","longitude":"-104.8654486"},
{"id":"72","name":"Gateway Park","street1":"3444 N Salida Ct","street2":"","phone":"(720) 990-8100","city":"Aurora","state":"CO","zip":"80011","fullStreet":"3444 N Salida Ct","latitude":"39.765145","longitude":"-104.7741212"},
{"id":"73","name":"Grand Junction","street1":"522 Bogart Ln","street2":"","phone":"(970) 241-0352","city":"Grand Junction","state":"CO","zip":"81505","fullStreet":"522 Bogart Ln","latitude":"39.0800419","longitude":"-108.5842826"},
{"id":"74","name":"Greeley","street1":"4555 Centerplace Dr","street2":"","phone":"(970) 330-4421","city":"Greeley","state":"CO","zip":"80634","fullStreet":"4555 Centerplace Dr","latitude":"40.3956537","longitude":"-104.7525967"},
{"id":"75","name":"Greenwood Village","street1":"9331 E Arapahoe Rd","street2":"","phone":"(303) 706-0106","city":"Greenwood Village","state":"CO","zip":"80112","fullStreet":"9331 E Arapahoe Rd","latitude":"39.59512737","longitude":"-104.8805425"},
{"id":"76","name":"Hampden and I-25","street1":"7785 E Hampden Ave","street2":"","phone":"(303) 755-4000","city":"Denver","state":"CO","zip":"80231","fullStreet":"7785 E Hampden Ave","latitude":"39.6535887","longitude":"-104.9000886"},
{"id":"77","name":"Highlands Ranch Town Center","street1":"950 Cpl Max Donahue Ln","street2":"","phone":"(303) 470-1300","city":"Highlands Ranch","state":"CO","zip":"80129","fullStreet":"950 Cpl Max Donahue Ln","latitude":"39.5485735","longitude":"-105.0001601"},
{"id":"78","name":"I-25 & Harmony Rd","street1":"4531 Weitzel St Timnath CO80547","street2":"","phone":"(970) 482-4183","city":"Timnath","state":"CO","zip":"80547","fullStreet":"4531 Weitzel St Timnath CO80547","latitude":"40.5239212","longitude":"-104.9900935"},
{"id":"79","name":"Larkridge","street1":"16670 Washington St","street2":"","phone":"(303) 450-3322","city":"Thornton","state":"CO","zip":"80023","fullStreet":"16670 Washington St","latitude":"39.9976885","longitude":"-104.974616"},
{"id":"80","name":"Longmont","street1":"215 Ken Pratt Blvd","street2":"","phone":"(303) 772-9642","city":"Longmont","state":"CO","zip":"80501","fullStreet":"215 Ken Pratt Blvd","latitude":"40.1519577","longitude":"-105.0960155"},
{"id":"81","name":"Loveland","street1":"1545 Rocky Mountain Ave","street2":"","phone":"(970) 593-0044","city":"Loveland","state":"CO","zip":"80538","fullStreet":"1545 Rocky Mountain Ave","latitude":"40.4078077","longitude":"-105.0064567"},
{"id":"82","name":"North Academy","street1":"7990 N Academy Blvd","street2":"","phone":"(719) 598-4646","city":"Colorado Springs","state":"CO","zip":"80920","fullStreet":"7990 N Academy Blvd","latitude":"38.94766269","longitude":"-104.8029469"},
{"id":"83","name":"North Carefree","street1":"3710 Bloomington St","street2":"","phone":"(719) 596-3577","city":"Colorado Springs","state":"CO","zip":"80922","fullStreet":"3710 Bloomington St","latitude":"38.88546134","longitude":"-104.7168686"},
{"id":"84","name":"Northgate","street1":"391 Spectrum Loop","street2":"","phone":"(719) 487-9790","city":"Colorado Springs","state":"CO","zip":"80921","fullStreet":"391 Spectrum Loop","latitude":"39.0248998","longitude":"-104.8176301"},
{"id":"85","name":"Orchard Park Place","street1":"14275 Orchard Pkwy","street2":"","phone":"(303) 920-5042","city":"Westminster","state":"CO","zip":"80023","fullStreet":"14275 Orchard Pkwy","latitude":"39.955493","longitude":"-104.9943999"},
{"id":"86","name":"Park Meadows Mall","street1":"8515 Park Meadows Center Dr","street2":"Ste 3018","phone":"(303) 706-9500","city":"Lone Tree","state":"CO","zip":"80124","fullStreet":"8515 Park Meadows Center Dr Ste 3018","latitude":"39.5630184","longitude":"-104.8758728"},
{"id":"87","name":"Park Meadows on County Line Rd","street1":"9091 Westview Rd","street2":"","phone":"(303) 706-9595","city":"Lone Tree","state":"CO","zip":"80124","fullStreet":"9091 Westview Rd","latitude":"39.5653367","longitude":"-104.8832621"},
{"id":"88","name":"Parker","street1":"9335 Crown Crest Blvd","street2":"","phone":"(303) 805-8575","city":"Parker","state":"CO","zip":"80138","fullStreet":"9335 Crown Crest Blvd","latitude":"39.5487408","longitude":"-104.7735369"},
{"id":"89","name":"Pueblo","street1":"1535 W Us Highway 50","street2":"","phone":"(719) 545-4291","city":"Pueblo","state":"CO","zip":"81008","fullStreet":"1535 W Us Highway 50","latitude":"38.309781","longitude":"-104.6277996"},
{"id":"90","name":"Quebec Street","street1":"3601 Quebec St","street2":"","phone":"(303) 355-2221","city":"Denver","state":"CO","zip":"80207","fullStreet":"3601 Quebec St","latitude":"39.76782764","longitude":"-104.9040405"},
{"id":"91","name":"River Point","street1":"4090 River Point Pkwy","street2":"","phone":"(303) 781-0264","city":"Sheridan","state":"CO","zip":"80110","fullStreet":"4090 River Point Pkwy","latitude":"39.64270367","longitude":"-105.0077551"},
{"id":"92","name":"Sloan's Lake","street1":"1901 Sheridan Blvd","street2":"","phone":"(303) 274-3699","city":"Edgewater","state":"CO","zip":"80214","fullStreet":"1901 Sheridan Blvd","latitude":"39.74606767","longitude":"-105.0536865"},
{"id":"93","name":"South Nevada Ave.","street1":"1620 S Nevada Ave","street2":"","phone":"(719) 632-6376","city":"Colorado Springs","state":"CO","zip":"80905","fullStreet":"1620 S Nevada Ave","latitude":"38.81089464","longitude":"-104.8224046"},
{"id":"94","name":"Southlands","street1":"24400 E Smoky Hill Rd","street2":"","phone":"(303) 690-4110","city":"Aurora","state":"CO","zip":"80016","fullStreet":"24400 E Smoky Hill Rd","latitude":"39.5958531","longitude":"-104.7039336"},
{"id":"95","name":"Streets at Southglenn In-Line DT","street1":"6907 S University Blvd Ste 201","street2":"","phone":"3037950049","city":"Centennial","state":"CO","zip":"80122","fullStreet":"6907 S University Blvd Ste 201","latitude":"39.59444217","longitude":"-104.9602444"},
{"id":"96","name":"The Citadel","street1":"750 Citadel Dr E Ste 2252","street2":"","phone":"(719) 596-2786","city":"Colorado Springs","state":"CO","zip":"80909","fullStreet":"750 Citadel Dr E Ste 2252","latitude":"38.84521421","longitude":"-104.7588872"},
{"id":"97","name":"Town Center at Aurora","street1":"14200 E Alameda Ave Unit 2062","street2":"","phone":"(303) 364-8601","city":"Aurora","state":"CO","zip":"80012","fullStreet":"14200 E Alameda Ave Unit 2062","latitude":"39.7078721","longitude":"-104.8243583"},
{"id":"98","name":"University and Highlands Ranch Pkwy","street1":"3700 E Highlands Ranch Pkwy","street2":"","phone":"(303) 346-0010","city":"Highlands Ranch","state":"CO","zip":"80126","fullStreet":"3700 E Highlands Ranch Pkwy","latitude":"39.5438226","longitude":"-104.9453178"},
{"id":"99","name":"Wadsworth Blvd at 80th Avenue","street1":"7809 Wadsworth Blvd","street2":"","phone":"(303) 456-1700","city":"Arvada","state":"CO","zip":"80003","fullStreet":"7809 Wadsworth Blvd","latitude":"39.8392797","longitude":"-105.0823457"},
{"id":"100","name":"Apple Blossom Mall","street1":"1850 Apple Blossom Dr","street2":"","phone":"(540) 665-0783","city":"Winchester","state":"VA","zip":"22601","fullStreet":"1850 Apple Blossom Dr","latitude":"39.15932544","longitude":"-78.16629897"},
{"id":"101","name":"Battlefield Blvd.","street1":"1516 Sams Cir","street2":"","phone":"(757) 547-4503","city":"Chesapeake","state":"VA","zip":"23320","fullStreet":"1516 Sams Cir","latitude":"36.7693576","longitude":"-76.2509523"},
{"id":"102","name":"Bonsack","street1":"3814 Challenger Ave","street2":"SWC of Challenger Ave & Ruritan Rd","phone":"(540) 685-4255","city":"Roanoke","state":"VA","zip":"24012","fullStreet":"3814 Challenger Ave SWC of Challenger Ave & Ruritan Rd","latitude":"37.31135301","longitude":"-79.88609229"},
{"id":"103","name":"Bristol","street1":"3483 Lee Hwy","street2":"","phone":"(276) 466-5811","city":"Bristol","state":"VA","zip":"24202","fullStreet":"3483 Lee Hwy","latitude":"36.6356839","longitude":"-82.1173135"},
{"id":"104","name":"Bristow","street1":"9939 Sowder Village Sq","street2":"","phone":"(703) 365-9292","city":"Manassas","state":"VA","zip":"20109","fullStreet":"9939 Sowder Village Sq","latitude":"38.7377927","longitude":"-77.5342858"},
{"id":"105","name":"Broad Creek Crossing","street1":"1205 N Military Hwy","street2":"","phone":"(757) 461-9467","city":"Norfolk","state":"VA","zip":"23502","fullStreet":"1205 N Military Hwy","latitude":"36.8635971","longitude":"-76.2111794"},
{"id":"106","name":"Burke Centre","street1":"5815 Burke Centre Pkwy","street2":"","phone":"(703) 250-7000","city":"Burke","state":"VA","zip":"22015","fullStreet":"5815 Burke Centre Pkwy","latitude":"38.7981947","longitude":"-77.31705"},
{"id":"107","name":"Candlers Mountain Road Drive-Thru Only","street1":"2901 Candlers Mountain Rd","street2":"","phone":"(434) 237-2354","city":"Lynchburg","state":"VA","zip":"24502","fullStreet":"2901 Candlers Mountain Rd","latitude":"37.3689536","longitude":"-79.180106"},
{"id":"108","name":"Celebrate Virginia","street1":"1094 International Pkwy","street2":"","phone":"(540) 752-0061","city":"Fredericksburg","state":"VA","zip":"22406","fullStreet":"1094 International Pkwy","latitude":"38.3595044","longitude":"-77.5177469"},
{"id":"109","name":"Center of the Universe","street1":"815 England St","street2":"","phone":"(804) 798-9008","city":"Ashland","state":"VA","zip":"23005","fullStreet":"815 England St","latitude":"37.75834277","longitude":"-77.46405373"},
{"id":"110","name":"Central Park","street1":"1698 Carl D Silver Pkwy","street2":"","phone":"(540) 786-7979","city":"Fredericksburg","state":"VA","zip":"22401","fullStreet":"1698 Carl D Silver Pkwy","latitude":"38.30511607","longitude":"-77.50952805"},
{"id":"111","name":"Chantilly","street1":"4201 Chantilly Shopping Center","street2":"","phone":"(703) 631-2253","city":"Chantilly","state":"VA","zip":"20151","fullStreet":"4201 Chantilly Shopping Center","latitude":"38.886225","longitude":"-77.4417986"},
{"id":"112","name":"Chantilly Air and Space","street1":"3454 Historic Sully Way","street2":"","phone":"(703) 595-2930","city":"Chantilly","state":"VA","zip":"20151","fullStreet":"3454 Historic Sully Way","latitude":"38.9143691","longitude":"-77.4266829"},
{"id":"113","name":"Charlottesville Fashion Square","street1":"1576 Rio Rd E","street2":"","phone":"(434) 973-1646","city":"Charlottesville","state":"VA","zip":"22901","fullStreet":"1576 Rio Rd E","latitude":"38.07920018","longitude":"-78.47244229"},
{"id":"114","name":"Chesapeake Square Mall","street1":"4200 Portsmouth Blvd Ste 516","street2":"","phone":"(757) 488-6814","city":"Chesapeake","state":"VA","zip":"23321","fullStreet":"4200 Portsmouth Blvd Ste 516","latitude":"36.8242805","longitude":"-76.4151864"},
{"id":"115","name":"Chester","street1":"2900 W Hundred Rd","street2":"","phone":"(804) 706-6238","city":"Chester","state":"VA","zip":"23831","fullStreet":"2900 W Hundred Rd","latitude":"37.35612724","longitude":"-77.41894391"},
{"id":"116","name":"Chesterfield Plaza","street1":"1590 Koger Center Blvd","street2":"","phone":"(804) 594-3930","city":"North Chesterfield","state":"VA","zip":"23235","fullStreet":"1590 Koger Center Blvd","latitude":"37.51147985","longitude":"-77.61182175"},
{"id":"117","name":"Christiansburg","street1":"2200 N Franklin St","street2":"","phone":"(540) 394-4488","city":"Christiansburg","state":"VA","zip":"24073","fullStreet":"2200 N Franklin St","latitude":"37.15924715","longitude":"-80.42157932"},
{"id":"118","name":"Christopher Newport","street1":"12423 Warwick Blvd","street2":"","phone":"(757) 595-0316","city":"Newport News","state":"VA","zip":"23606","fullStreet":"12423 Warwick Blvd","latitude":"37.0697398","longitude":"-76.4937075"},
{"id":"119","name":"Christopher Newport University","street1":"1 University Pl","street2":"","phone":"(757) 594-7888","city":"Newport News","state":"VA","zip":"23606","fullStreet":"1 University Pl","latitude":"37.0628532","longitude":"-76.4929036"},
{"id":"120","name":"Coliseum Drive","street1":"2140 Coliseum Dr","street2":"","phone":"(757) 826-1277","city":"Hampton","state":"VA","zip":"23666","fullStreet":"2140 Coliseum Dr","latitude":"37.0484989","longitude":"-76.3907178"},
{"id":"121","name":"Colonial Heights","street1":"661 Southpark Blvd","street2":"","phone":"(804) 524-4944","city":"Colonial Heights","state":"VA","zip":"23834","fullStreet":"661 Southpark Blvd","latitude":"37.2460918","longitude":"-77.3896294"},
{"id":"122","name":"Crystal City In-Line","street1":"2200 Crystal Dr Ste G","street2":"","phone":"(703) 415-7815","city":"Arlington","state":"VA","zip":"22202","fullStreet":"2200 Crystal Dr Ste G","latitude":"38.8543184","longitude":"-77.0499803"},
{"id":"123","name":"Culpeper Colonnade","street1":"15275 Creativity Dr","street2":"","phone":"(540) 825-4447","city":"Culpeper","state":"VA","zip":"22701","fullStreet":"15275 Creativity Dr","latitude":"38.4842716","longitude":"-77.96793322"},
{"id":"124","name":"Danville Mall","street1":"325 Piedmont Dr","street2":"","phone":"(434) 791-3166","city":"Danville","state":"VA","zip":"24540","fullStreet":"325 Piedmont Dr","latitude":"36.5937408","longitude":"-79.4219155"},
{"id":"125","name":"Dulles 28 and Waxpool Road","street1":"22015 Dulles Retail Plz","street2":"","phone":"(571) 325-2669","city":"Sterling","state":"VA","zip":"20166","fullStreet":"22015 Dulles Retail Plz","latitude":"38.98577409","longitude":"-77.45527289"},
{"id":"126","name":"Dulles Town Center Mall","street1":"21100 Dulles Town Cir Ste 244","street2":"","phone":"(703) 421-5203","city":"Dulles","state":"VA","zip":"20166","fullStreet":"21100 Dulles Town Cir Ste 244","latitude":"39.03504431","longitude":"-77.42470705"},
{"id":"127","name":"Dulles Town Crossing","street1":"45440 Dulles Crossing Plz","street2":"","phone":"(703) 444-0300","city":"Sterling","state":"VA","zip":"20166","fullStreet":"45440 Dulles Crossing Plz","latitude":"39.02451253","longitude":"-77.42713147"},
{"id":"128","name":"Dumfries","street1":"3880 Fettler Park Dr","street2":"","phone":"","city":"Dumfries","state":"VA","zip":"22025","fullStreet":"3880 Fettler Park Dr","latitude":"38.5822862","longitude":"-77.3292099"},
{"id":"129","name":"Edinburgh Commons","street1":"205 Carmichael Way","street2":"","phone":"(757) 421-3586","city":"Chesapeake","state":"VA","zip":"23322","fullStreet":"205 Carmichael Way","latitude":"36.6583732","longitude":"-76.2325991"},
{"id":"130","name":"Fair Lakes (VA)","street1":"4516 Fair Knoll Dr","street2":"","phone":"(703) 222-1096","city":"Fairfax","state":"VA","zip":"22033","fullStreet":"4516 Fair Knoll Dr","latitude":"38.8623758","longitude":"-77.3875963"},
{"id":"131","name":"Fair Oaks Mall","street1":"11750 Lee Jackson MMRL Hwy.","street2":"11937 Fair Oaks Mall","phone":"(703) 279-1883","city":"Fairfax","state":"VA","zip":"22033","fullStreet":"11750 Lee Jackson MMRL Hwy. 11937 Fair Oaks Mall","latitude":"38.86475515","longitude":"-77.35451082"},
{"id":"132","name":"Fairfax Circle","street1":"9509 Fairfax Blvd","street2":"","phone":"(703) 934-2150","city":"Fairfax","state":"VA","zip":"22031","fullStreet":"9509 Fairfax Blvd","latitude":"38.86488843","longitude":"-77.27227305"},
{"id":"133","name":"Frederick Blvd.","street1":"901 Frederick Blvd","street2":"","phone":"(757) 673-4414","city":"Portsmouth","state":"VA","zip":"23707","fullStreet":"901 Frederick Blvd","latitude":"36.8311399","longitude":"-76.3403504"},
{"id":"134","name":"Fredericksburg","street1":"4220 Plank Rd","street2":"","phone":"(540) 786-1131","city":"Fredericksburg","state":"VA","zip":"22407","fullStreet":"4220 Plank Rd","latitude":"38.2885315","longitude":"-77.5329953"},
{"id":"135","name":"Garrisonville","street1":"25 Dunn Dr","street2":"","phone":"(540) 657-7930","city":"Stafford","state":"VA","zip":"22556","fullStreet":"25 Dunn Dr","latitude":"38.4759208","longitude":"-77.4221455"},
{"id":"136","name":"General Booth Blvd.","street1":"1524 General Booth Blvd","street2":"","phone":"(757) 426-6639","city":"Virginia Beach","state":"VA","zip":"23454","fullStreet":"1524 General Booth Blvd","latitude":"36.7880346","longitude":"-75.9973941"},
{"id":"137","name":"George Mason University (SUB 1)","street1":"4400 University Dr","street2":"Student Union Building 1","phone":"(703) 993-9259","city":"Fairfax","state":"VA","zip":"22030","fullStreet":"4400 University Dr Student Union Building 1","latitude":"38.8343997","longitude":"-77.3107944"},
{"id":"138","name":"George Washington","street1":"44835 Lakeview Overlook Plz","street2":"","phone":"(703) 723-6172","city":"Ashburn","state":"VA","zip":"20147","fullStreet":"44835 Lakeview Overlook Plz","latitude":"39.05999233","longitude":"-77.44945697"},
{"id":"139","name":"Ghent","street1":"1600 Monticello Ave","street2":"","phone":"(757) 446-8006","city":"Norfolk","state":"VA","zip":"23510","fullStreet":"1600 Monticello Ave","latitude":"36.8637481","longitude":"-76.2850806"},
{"id":"140","name":"Gloucester","street1":"6780 Waltons Ln","street2":"(P.O. Box 769)","phone":"(804) 693-4585","city":"Gloucester","state":"VA","zip":"23061","fullStreet":"6780 Waltons Ln (P.O. Box 769)","latitude":"37.29129467","longitude":"-76.52479011"},
{"id":"141","name":"Grassfield","street1":"600 Grassfield Pkwy","street2":"","phone":"(757) 436-1100","city":"Chesapeake","state":"VA","zip":"23322","fullStreet":"600 Grassfield Pkwy","latitude":"36.72356237","longitude":"-76.3083635"},
{"id":"142","name":"Greenbrier Mall (VA)","street1":"1401 Greenbrier Pkwy Ste 2010","street2":"","phone":"(757) 424-6550","city":"Chesapeake","state":"VA","zip":"23320","fullStreet":"1401 Greenbrier Pkwy Ste 2010","latitude":"36.7782848","longitude":"-76.2307848"},
{"id":"143","name":"Hampton University","street1":"Queen & Tyler St","street2":"","phone":"(757) 727-5218","city":"Hampton","state":"VA","zip":"23668","fullStreet":"Queen & Tyler St","latitude":"37.023786","longitude":"-76.339698"},
{"id":"144","name":"Harbour View","street1":"6212 College Dr","street2":"","phone":"(757) 686-4633","city":"Suffolk","state":"VA","zip":"23435","fullStreet":"6212 College Dr","latitude":"36.8805393","longitude":"-76.4241776"},
{"id":"145","name":"Harrisonburg","street1":"1691 E Market St","street2":"","phone":"(540) 574-2232","city":"Harrisonburg","state":"VA","zip":"22801","fullStreet":"1691 E Market St","latitude":"38.43387162","longitude":"-78.84608827"},
{"id":"146","name":"Haygood Shopping Center","street1":"1097 Independence Blvd","street2":"","phone":"(757) 318-7641","city":"Virginia Beach","state":"VA","zip":"23455","fullStreet":"1097 Independence Blvd","latitude":"36.8724529","longitude":"-76.1346422"},
{"id":"147","name":"Haymarket","street1":"15180 Washington St","street2":"","phone":"(571) 222-7562","city":"Haymarket","state":"VA","zip":"20169","fullStreet":"15180 Washington St","latitude":"38.8151134","longitude":"-77.6410044"},
{"id":"148","name":"Hull Street at Brandermill","street1":"12301 Chattanooga Plz","street2":"","phone":"(804) 744-9092","city":"Midlothian","state":"VA","zip":"23112","fullStreet":"12301 Chattanooga Plz","latitude":"37.434957","longitude":"-77.66207123"},
{"id":"149","name":"Indian River Road","street1":"5409 Indian River Rd","street2":"","phone":"(757) 578-4800","city":"Virginia Beach","state":"VA","zip":"23464","fullStreet":"5409 Indian River Rd","latitude":"36.7988264","longitude":"-76.17877"},
{"id":"150","name":"James Madison University","street1":"Msc 902","street2":"Dining Services","phone":"(540) 568-7526","city":"Harrisonburg","state":"VA","zip":"22807","fullStreet":"Msc 902 Dining Services","latitude":"38.4341257","longitude":"-78.86705938"},
{"id":"151","name":"Kings Dominion OCL","street1":"16000 Theme Park Way","street2":"","phone":"","city":"Doswell","state":"VA","zip":"23047","fullStreet":"16000 Theme Park Way","latitude":"37.84226621","longitude":"-77.47364779"},
{"id":"152","name":"Lake Ridge","street1":"4101 Old Bridge Road","street2":"","phone":"(703) 580-5205","city":"Woodbridge","state":"VA","zip":"22192","fullStreet":"4101 Old Bridge Road","latitude":"38.6724632","longitude":"-77.3343465"},
{"id":"153","name":"Leesburg","street1":"1002 Edwards Ferry Rd NE","street2":"","phone":"(703) 777-1200","city":"Leesburg","state":"VA","zip":"20176","fullStreet":"1002 Edwards Ferry Rd NE","latitude":"39.11382568","longitude":"-77.53764226"},
{"id":"154","name":"Liberty University - Tilley","street1":"1971 University Blvd","street2":"Tilley Student Center","phone":"(434) 582-2262","city":"Lynchburg","state":"VA","zip":"24502","fullStreet":"1971 University Blvd Tilley Student Center","latitude":"37.3504213","longitude":"-79.179496"},
{"id":"155","name":"Longwood University","street1":"156 S South St","street2":"","phone":"(434) 315-0232","city":"Farmville","state":"VA","zip":"23901","fullStreet":"156 S South St","latitude":"37.29963671","longitude":"-78.39238083"},
{"id":"156","name":"Lynnhaven Mall","street1":"701 Lynnhaven Pkwy","street2":"","phone":"(757) 340-1171","city":"Virginia Beach","state":"VA","zip":"23452","fullStreet":"701 Lynnhaven Pkwy","latitude":"36.8179266","longitude":"-76.0724134"},
{"id":"157","name":"Main Street (VA)","street1":"1018 N Main St","street2":"","phone":"","city":"Suffolk","state":"VA","zip":"23434","fullStreet":"1018 N Main St","latitude":"36.7436356","longitude":"-76.5829488"},
{"id":"158","name":"Mall at Chesterfield Towne Center","street1":"11500 Midlothian Tpke Ste 478","street2":"","phone":"(804) 794-4355","city":"North Chesterfield","state":"VA","zip":"23235","fullStreet":"11500 Midlothian Tpke Ste 478","latitude":"37.50537997","longitude":"-77.61144869"},
{"id":"159","name":"Marketplace at Hilltop","street1":"749 First Colonial Rd","street2":"","phone":"","city":"Virginia Beach","state":"VA","zip":"23451","fullStreet":"749 First Colonial Rd","latitude":"36.8521785","longitude":"-76.0231625"},
{"id":"160","name":"Martinsville","street1":"400 Liberty St","street2":"","phone":"(276) 632-2448","city":"Martinsville","state":"VA","zip":"24112","fullStreet":"400 Liberty St","latitude":"36.6960004","longitude":"-79.8738074"},
{"id":"161","name":"Mechanicsville","street1":"7285 Battle Hill Dr","street2":"","phone":"(804) 730-2638","city":"Mechanicsville","state":"VA","zip":"23111","fullStreet":"7285 Battle Hill Dr","latitude":"37.6037498","longitude":"-77.35494886"},
{"id":"162","name":"Medical College of Virginia","street1":"403 N 13th St","street2":"MCV Campus","phone":"(804) 971-2347","city":"Richmond","state":"VA","zip":"23298","fullStreet":"403 N 13th St MCV Campus","latitude":"37.5401463","longitude":"-77.4288117"},
{"id":"163","name":"Mercury Boulevard","street1":"110 Market Place Dr","street2":"","phone":"(757) 825-2224","city":"Hampton","state":"VA","zip":"23666","fullStreet":"110 Market Place Dr","latitude":"37.0377994","longitude":"-76.4032535"},
{"id":"164","name":"Monticello Marketplace","street1":"4610 Monticello Ave","street2":"","phone":"(757) 564-6801","city":"Williamsburg","state":"VA","zip":"23188","fullStreet":"4610 Monticello Ave","latitude":"37.2705409","longitude":"-76.758938"},
{"id":"165","name":"Mooretown Road","street1":"6732 Mooretown Rd","street2":"","phone":"(757) 253-6464","city":"Williamsburg","state":"VA","zip":"23188","fullStreet":"6732 Mooretown Rd","latitude":"37.33095782","longitude":"-76.73441299"},
{"id":"166","name":"Norfolk State University","street1":"700 Park Ave","street2":"","phone":"(757) 823-2114","city":"Norfolk","state":"VA","zip":"23504","fullStreet":"700 Park Ave","latitude":"36.8466779","longitude":"-76.2698393"},
{"id":"167","name":"North Point Village","street1":"1494 Northpoint Village Ctr","street2":"","phone":"(703) 481-1725","city":"Reston","state":"VA","zip":"20194","fullStreet":"1494 Northpoint Village Ctr","latitude":"38.9803216","longitude":"-77.34304563"},
{"id":"168","name":"Old Dominion University","street1":"1200 Webb Ctr","street2":"","phone":"(757) 683-3218","city":"Norfolk","state":"VA","zip":"23529","fullStreet":"1200 Webb Ctr","latitude":"36.884721","longitude":"-76.311064"},
{"id":"169","name":"Pantops","street1":"1626 Richmond Rd","street2":"","phone":"(434) 245-5254","city":"Charlottesville","state":"VA","zip":"22911","fullStreet":"1626 Richmond Rd","latitude":"38.02916815","longitude":"-78.44035688"},
{"id":"170","name":"Parham Road","street1":"1529 N Parham Rd","street2":"","phone":"(804) 282-4285","city":"Richmond","state":"VA","zip":"23229","fullStreet":"1529 N Parham Rd","latitude":"37.60396237","longitude":"-77.56425051"},
{"id":"171","name":"Parkway Plaza","street1":"877 Lynnhaven Pkwy","street2":"","phone":"(757) 468-1003","city":"Virginia Beach","state":"VA","zip":"23452","fullStreet":"877 Lynnhaven Pkwy","latitude":"36.8118356","longitude":"-76.0713029"},
{"id":"172","name":"Patrick Henry Mall","street1":"12300 Jefferson Ave Spc 740-F1","street2":"","phone":"(757) 750-1111","city":"Newport News","state":"VA","zip":"23602","fullStreet":"12300 Jefferson Ave Spc 740-F1","latitude":"37.10989515","longitude":"-76.49642531"},
{"id":"173","name":"Pleasant Valley Road","street1":"2230 S Pleasant Valley Rd","street2":"","phone":"(540) 678-4096","city":"Winchester","state":"VA","zip":"22601","fullStreet":"2230 S Pleasant Valley Rd","latitude":"39.15941284","longitude":"-78.1700822"},
{"id":"174","name":"Portsmouth Blvd.","street1":"4204 Portsmouth Blvd","street2":"","phone":"(757) 465-8138","city":"Chesapeake","state":"VA","zip":"23321","fullStreet":"4204 Portsmouth Blvd","latitude":"36.8238499","longitude":"-76.4158184"},
{"id":"175","name":"Purcellville","street1":"165 Purcellville Gateway Dr","street2":"","phone":"(540) 338-0833","city":"Purcellville","state":"VA","zip":"20132","fullStreet":"165 Purcellville Gateway Dr","latitude":"39.13751299","longitude":"-77.6933431"},
{"id":"176","name":"Radford University","street1":"Fairfax Street","street2":"Dalton Hall","phone":"(540) 831-5351","city":"Radford","state":"VA","zip":"24142","fullStreet":"Fairfax Street Dalton Hall","latitude":"37.13788218","longitude":"-80.5509057"},
{"id":"177","name":"Regency Square (VA)","street1":"1404 N Parham Rd Spc Fc101","street2":"","phone":"(804) 741-2370","city":"Richmond","state":"VA","zip":"23229","fullStreet":"1404 N Parham Rd Spc Fc101","latitude":"37.60128596","longitude":"-77.56411456"},
{"id":"178","name":"River Ridge Mall","street1":"3405 Candlers Mountain Rd Ste Fc6","street2":"","phone":"(434) 237-5231","city":"Lynchburg","state":"VA","zip":"24502","fullStreet":"3405 Candlers Mountain Rd Ste Fc6","latitude":"37.3649024","longitude":"-79.1786388"},
{"id":"179","name":"Riverside Drive","street1":"3535 Riverside Dr","street2":"","phone":"(434) 799-1980","city":"Danville","state":"VA","zip":"24541","fullStreet":"3535 Riverside Dr","latitude":"36.5820679","longitude":"-79.4288685"},
{"id":"180","name":"Rutherford Crossing","street1":"112 Market St","street2":"","phone":"(540) 535-2120","city":"Winchester","state":"VA","zip":"22603","fullStreet":"112 Market St","latitude":"39.2191189","longitude":"-78.13453751"},
{"id":"181","name":"Salem","street1":"1353 W Main St","street2":"","phone":"(540) 387-2095","city":"Salem","state":"VA","zip":"24153","fullStreet":"1353 W Main St","latitude":"37.2901172","longitude":"-80.0788813"},
{"id":"182","name":"Salem Crossing","street1":"2013 Lynnhaven Pkwy","street2":"","phone":"(757) 471-4495","city":"Virginia Beach","state":"VA","zip":"23456","fullStreet":"2013 Lynnhaven Pkwy","latitude":"36.7922059","longitude":"-76.1208274"},
{"id":"183","name":"Seven Corners In-Line","street1":"6108C Arlington Blvd","street2":"","phone":"(703) 533-0288","city":"Falls Church","state":"VA","zip":"22044","fullStreet":"6108C Arlington Blvd","latitude":"38.86862569","longitude":"-77.14628665"},
{"id":"184","name":"Short Pump Crossing","street1":"3380 Pump Rd","street2":"","phone":"(804) 364-0200","city":"Richmond","state":"VA","zip":"23233","fullStreet":"3380 Pump Rd","latitude":"37.64738843","longitude":"-77.61493615"},
{"id":"185","name":"Short Pump Town Center","street1":"11800 W Broad St Ste 1008","street2":"","phone":"(804) 364-0200","city":"Richmond","state":"VA","zip":"23233","fullStreet":"11800 W Broad St Ste 1008","latitude":"37.65481938","longitude":"-77.62400151"},
{"id":"186","name":"Signal Hill","street1":"9506 Liberia Ave","street2":"","phone":"(703) 331-1888","city":"Manassas","state":"VA","zip":"20110","fullStreet":"9506 Liberia Ave","latitude":"38.75179729","longitude":"-77.4496957"},
{"id":"187","name":"South Riding","street1":"43310 Defender Dr","street2":"","phone":"(703) 722-8824","city":"Chantilly","state":"VA","zip":"20152","fullStreet":"43310 Defender Dr","latitude":"38.92178856","longitude":"-77.50522858"},
{"id":"188","name":"Southern Hills Drive","street1":"4110 Southern Hills Dr Sw","street2":"","phone":"(540) 989-2084","city":"Roanoke","state":"VA","zip":"24014","fullStreet":"4110 Southern Hills Dr Sw","latitude":"37.22672686","longitude":"-79.96857623"},
{"id":"189","name":"Southpark (VA)","street1":"384 Southpark Cir Spc B-10","street2":"","phone":"(804) 520-4785","city":"Colonial Heights","state":"VA","zip":"23834","fullStreet":"384 Southpark Cir Spc B-10","latitude":"37.25584693","longitude":"-77.39544674"},
{"id":"190","name":"Southpoint","street1":"9900 Southpoint Pkwy","street2":"","phone":"(540) 834-4199","city":"Fredericksburg","state":"VA","zip":"22407","fullStreet":"9900 Southpoint Pkwy","latitude":"38.2341652","longitude":"-77.5035634"},
{"id":"191","name":"Spotsylvania Towne Centre","street1":"8020 Spotsylvania Mall","street2":"P.O. Box 41097","phone":"(540) 786-6448","city":"Fredericksburg","state":"VA","zip":"22407","fullStreet":"8020 Spotsylvania Mall P.O. Box 41097","latitude":"38.2833983","longitude":"-77.57530652"},
{"id":"192","name":"Springfield In-Line DT","street1":"6681a Backlick Rd","street2":"","phone":"(703) 644-0155","city":"Springfield","state":"VA","zip":"22150","fullStreet":"6681a Backlick Rd","latitude":"38.77344402","longitude":"-77.18382201"},
{"id":"193","name":"Staunton [VA]","street1":"101 George Cochran Pkwy","street2":"","phone":"(540) 887-2391","city":"Staunton","state":"VA","zip":"24401","fullStreet":"101 George Cochran Pkwy","latitude":"38.1322834","longitude":"-79.041911"},
{"id":"194","name":"Stratford Hills","street1":"7125 Forest Hill Ave","street2":"","phone":"(804) 272-5050","city":"Richmond","state":"VA","zip":"23225","fullStreet":"7125 Forest Hill Ave","latitude":"37.5371395","longitude":"-77.5268923"},
{"id":"195","name":"Sudley Manor Drive","street1":"10677 Sudley Manor Dr","street2":"","phone":"(703) 330-7723","city":"Manassas","state":"VA","zip":"20109","fullStreet":"10677 Sudley Manor Dr","latitude":"38.7861515","longitude":"-77.5160746"},
{"id":"196","name":"Sugarland Crossing","street1":"46920 Community Plz","street2":"","phone":"(703) 444-1901","city":"Sterling","state":"VA","zip":"20164","fullStreet":"46920 Community Plz","latitude":"39.01601328","longitude":"-77.37689507"},
{"id":"197","name":"The Shops at Willow Lawn","street1":"1601 Willow Lawn Dr","street2":"Suite 301A","phone":"(804) 282-9674","city":"Richmond","state":"VA","zip":"23230","fullStreet":"1601 Willow Lawn Dr Suite 301A","latitude":"37.58020942","longitude":"-77.50020106"},
{"id":"198","name":"Tuckernuck Plaza","street1":"9100 W Broad St","street2":"","phone":"(804) 273-0435","city":"Richmond","state":"VA","zip":"23294","fullStreet":"9100 W Broad St","latitude":"37.63659345","longitude":"-77.54981813"},
{"id":"199","name":"Tyson's West In-Line","street1":"8461 Leesburg Pike Ste B","street2":"","phone":"(703) 847-1514","city":"Vienna","state":"VA","zip":"22182","fullStreet":"8461 Leesburg Pike Ste B","latitude":"38.9248311","longitude":"-77.2398208"},
{"id":"200","name":"University of Virginia","street1":"Alderman & McCormick Rds.","street2":"","phone":"(434) 924-7901","city":"Charlottesville","state":"VA","zip":"22904","fullStreet":"Alderman & McCormick Rds.","latitude":"38.0343859","longitude":"-78.5197162"},
{"id":"201","name":"University of Virginia - Wise","street1":"1 College Ave","street2":"","phone":"2763764123","city":"Wise","state":"VA","zip":"24293","fullStreet":"1 College Ave","latitude":"36.96992533","longitude":"-82.56034017"},
{"id":"202","name":"Valley Health Winchester Medical Center","street1":"1836 Amherst St","street2":"Cafe at Winchester Medical Center","phone":"(540) 536-8110","city":"Winchester","state":"VA","zip":"22601","fullStreet":"1836 Amherst St Cafe at Winchester Medical Center","latitude":"39.19126369","longitude":"-78.19671492"},
{"id":"203","name":"Valley View Boulevard","street1":"4805 Valley View Blvd NW","street2":"","phone":"(540) 362-1160","city":"Roanoke","state":"VA","zip":"24012","fullStreet":"4805 Valley View Blvd NW","latitude":"37.30323426","longitude":"-79.95960226"},
{"id":"204","name":"Valley View Mall","street1":"4802 Valley View Blvd NW","street2":"","phone":"(540) 362-9064","city":"Roanoke","state":"VA","zip":"24012","fullStreet":"4802 Valley View Blvd NW","latitude":"37.30403035","longitude":"-79.96428064"},
{"id":"205","name":"Victory Boulevard","street1":"5003a Victory Blvd","street2":"","phone":"(757) 988-8847","city":"Yorktown","state":"VA","zip":"23693","fullStreet":"5003a Victory Blvd","latitude":"37.11647221","longitude":"-76.46400611"},
{"id":"206","name":"Village Commons","street1":"12160 Sunset Hills Rd","street2":"","phone":"(571) 203-1234","city":"Reston","state":"VA","zip":"20190","fullStreet":"12160 Sunset Hills Rd","latitude":"38.9545742","longitude":"-77.3665414"},
{"id":"207","name":"Virginia Beach Blvd","street1":"4752 Virginia Beach Blvd","street2":"","phone":"(757) 233-1978","city":"Virginia Beach","state":"VA","zip":"23462","fullStreet":"4752 Virginia Beach Blvd","latitude":"36.8442655","longitude":"-76.1413242"},
{"id":"208","name":"Virginia Beach Blvd Drive-Thru Only","street1":"4393 Virginia Beach Blvd","street2":"","phone":"(757) 499-0236","city":"Virginia Beach","state":"VA","zip":"23462","fullStreet":"4393 Virginia Beach Blvd","latitude":"36.8429353","longitude":"-76.1260992"},
{"id":"209","name":"Virginia Center","street1":"10176 Brook Rd","street2":"","phone":"(804) 627-0497","city":"Glen Allen","state":"VA","zip":"23059","fullStreet":"10176 Brook Rd","latitude":"37.6757432","longitude":"-77.4616415"},
{"id":"210","name":"Virginia Commonwealth University","street1":"900 Park Ave","street2":"VCU Dining Services","phone":"(804) 828-2225","city":"Richmond","state":"VA","zip":"23284","fullStreet":"900 Park Ave VCU Dining Services","latitude":"37.5483097","longitude":"-77.4532708"},
{"id":"211","name":"Virginia Gateway","street1":"5015 Wellington Rd","street2":"","phone":"(703) 753-8944","city":"Gainesville","state":"VA","zip":"20155","fullStreet":"5015 Wellington Rd","latitude":"38.791479","longitude":"-77.6080885"},
{"id":"212","name":"Virginia State University","street1":"1 Hayden St","street2":"Foster Hall Student Center","phone":"(804) 687-2499","city":"Petersburg","state":"VA","zip":"23803","fullStreet":"1 Hayden St Foster Hall Student Center","latitude":"37.21190476","longitude":"-77.48172817"},
{"id":"213","name":"Virginia Tech","street1":"200 Owens Hall","street2":"Owens Dining Center","phone":"(540) 231-4901","city":"Blacksburg","state":"VA","zip":"24061","fullStreet":"200 Owens Hall Owens Dining Center","latitude":"37.255026","longitude":"-80.431691"},
{"id":"214","name":"Wards Road","street1":"4003 Wards Rd","street2":"","phone":"(434) 239-2557","city":"Lynchburg","state":"VA","zip":"24502","fullStreet":"4003 Wards Rd","latitude":"37.3485685","longitude":"-79.1854152"},
{"id":"215","name":"Warrenton","street1":"256 W Lee Hwy","street2":"","phone":"(540) 347-9791","city":"Warrenton","state":"VA","zip":"20186","fullStreet":"256 W Lee Hwy","latitude":"38.7281002","longitude":"-77.7991883"},
{"id":"216","name":"Waynesboro","street1":"710 Shenandoah Village Dr","street2":"","phone":"(540) 932-9209","city":"Waynesboro","state":"VA","zip":"22980","fullStreet":"710 Shenandoah Village Dr","latitude":"38.05865","longitude":"-78.94116075"},
{"id":"217","name":"Westchester Commons","street1":"132 Schofield Dr","street2":"","phone":"(804) 378-4232","city":"Midlothian","state":"VA","zip":"23113","fullStreet":"132 Schofield Dr","latitude":"37.51405297","longitude":"-77.69544804"},
{"id":"218","name":"White Oak Village","street1":"4443 S Laburnum Ave","street2":"","phone":"(804) 236-4601","city":"Richmond","state":"VA","zip":"23231","fullStreet":"4443 S Laburnum Ave","latitude":"37.52771125","longitude":"-77.35643002"},
{"id":"219","name":"Willow Lawn","street1":"4920 W Broad St","street2":"","phone":"(804) 662-5662","city":"Richmond","state":"VA","zip":"23230","fullStreet":"4920 W Broad St","latitude":"37.58319387","longitude":"-77.4951495"},
{"id":"220","name":"Winterpock","street1":"14101 Hull Street Rd","street2":"","phone":"(804) 639-0146","city":"Chesterfield","state":"VA","zip":"23832","fullStreet":"14101 Hull Street Rd","latitude":"37.40386429","longitude":"-77.67103902"},
{"id":"221","name":"Woodbridge","street1":"2425 Prince William Pkwy","street2":"","phone":"(703) 490-3165","city":"Woodbridge","state":"VA","zip":"22192","fullStreet":"2425 Prince William Pkwy","latitude":"38.6530009","longitude":"-77.2867776"},
{"id":"222","name":"Woodbrook Drive","street1":"350 Woodbrook Dr","street2":"","phone":"(434) 872-0187","city":"Charlottesville","state":"VA","zip":"22901","fullStreet":"350 Woodbrook Dr","latitude":"38.08866482","longitude":"-78.47067523"},
{"id":"223","name":"Yoder Plaza","street1":"12128 Jefferson Ave","street2":"","phone":"(757) 882-8844","city":"Newport News","state":"VA","zip":"23602","fullStreet":"12128 Jefferson Ave","latitude":"37.10783748","longitude":"-76.49512595"},
{"id":"224","name":"Clackamas Promenade","street1":"12520 SE 93rd Ave","street2":"","phone":"(503) 308-6953","city":"Clackamas","state":"OR","zip":"97015","fullStreet":"12520 SE 93rd Ave","latitude":"45.4327051","longitude":"-122.5687407"},
{"id":"225","name":"Tanasbourne","street1":"2855 NW TOWN CENTER DR","street2":"","phone":"(503) 433-9015","city":"Hillsboro","state":"OR","zip":"97006","fullStreet":"2855 NW TOWN CENTER DR","latitude":"45.5403689","longitude":"-122.8666548"},
{"id":"226","name":"Pheasant Lane Mall","street1":"310 Daniel Webster Hwy Ste 144","street2":"","phone":"(603) 891-1000","city":"Nashua","state":"NH","zip":"3060","fullStreet":"310 Daniel Webster Hwy Ste 144","latitude":"42.7003937","longitude":"-71.435831"},
{"id":"227","name":"Somerset Plaza","street1":"377 Amherst St","street2":"","phone":"(603) 595-2202","city":"Nashua","state":"NH","zip":"3063","fullStreet":"377 Amherst St","latitude":"42.7850088","longitude":"-71.5077024"},
{"id":"228","name":"Bear","street1":"1101 Quintilio Dr","street2":"","phone":"(302) 834-4816","city":"Bear","state":"DE","zip":"19701","fullStreet":"1101 Quintilio Dr","latitude":"39.6304312","longitude":"-75.6660388"},
{"id":"229","name":"Camden Town Center","street1":"4044 S Dupont Hwy","street2":"","phone":"(302) 697-6150","city":"Camden","state":"DE","zip":"19934","fullStreet":"4044 S Dupont Hwy","latitude":"39.1025608","longitude":"-75.5431679"},
{"id":"230","name":"Christiana","street1":"4657 Ogletown Stanton Rd","street2":"","phone":"(302) 737-3400","city":"Newark","state":"DE","zip":"19713","fullStreet":"4657 Ogletown Stanton Rd","latitude":"39.6866689","longitude":"-75.6782346"},
{"id":"231","name":"Christiana Mall","street1":"204 Christiana Mall","street2":"","phone":"(302) 737-3200","city":"Newark","state":"DE","zip":"19702","fullStreet":"204 Christiana Mall","latitude":"39.6788646","longitude":"-75.65139"},
{"id":"232","name":"Concord Mall","street1":"4737 Concord Pike Ste 760","street2":"","phone":"(302) 478-7763","city":"Wilmington","state":"DE","zip":"19803","fullStreet":"4737 Concord Pike Ste 760","latitude":"39.8239841","longitude":"-75.5449801"},
{"id":"233","name":"Delaware State University","street1":"1200 N Dupont Hwy","street2":"MLK Student Center","phone":"(302) 857-7209","city":"Dover","state":"DE","zip":"19901","fullStreet":"1200 N Dupont Hwy MLK Student Center","latitude":"39.1896731","longitude":"-75.5496371"},
{"id":"234","name":"Middletown (DE)","street1":"701 S Ridge Ave","street2":"","phone":"(302) 376-7700","city":"Middletown","state":"DE","zip":"19709","fullStreet":"701 S Ridge Ave","latitude":"39.4474484","longitude":"-75.732181"},
{"id":"235","name":"Milford Plaza","street1":"698 N Dupont Blvd # C","street2":"","phone":"(302) 422-8825","city":"Milford","state":"DE","zip":"19963","fullStreet":"698 N Dupont Blvd # C","latitude":"38.9189173","longitude":"-75.4392054"},
{"id":"236","name":"Millsboro","street1":"30141 Commerce Dr","street2":"","phone":"(302) 648-3221","city":"Millsboro","state":"DE","zip":"19966","fullStreet":"30141 Commerce Dr","latitude":"38.5738428","longitude":"-75.2860144"},
{"id":"237","name":"North Dover","street1":"1440 N Dupont Hwy","street2":"","phone":"3027365226","city":"Dover","state":"DE","zip":"19901","fullStreet":"1440 N Dupont Hwy","latitude":"39.1929057","longitude":"-75.5465947"},
{"id":"238","name":"Rehoboth Beach","street1":"19531 Coastal Hwy","street2":"","phone":"(302) 212-2170","city":"Rehoboth Beach","state":"DE","zip":"19971","fullStreet":"19531 Coastal Hwy","latitude":"38.7207468","longitude":"-75.1178807"},
{"id":"239","name":"University of Delaware","street1":"17 W Main Street","street2":"Trabant University Center","phone":"(302) 831-0510","city":"Newark","state":"DE","zip":"19713","fullStreet":"17 W Main Street Trabant University Center","latitude":"39.67077997","longitude":"-75.71228217"},
{"id":"240","name":"Arkansas State University","street1":"105 North Caraway","street2":"","phone":"(870) 680-4078","city":"Jonesboro","state":"AR","zip":"72401","fullStreet":"105 North Caraway","latitude":"35.8326323","longitude":"-90.7058092"},
{"id":"241","name":"Arkansas Tech University","street1":"306 West O Street","street2":"Baswell Techionery Student Union","phone":"(479) 880-4007","city":"Russellville","state":"AR","zip":"72801","fullStreet":"306 West O Street Baswell Techionery Student Union","latitude":"35.27912753","longitude":"-93.1408781"},
{"id":"242","name":"Cantrell Road","street1":"11525 Cantrell Rd","street2":"","phone":"(501) 223-5111","city":"Little Rock","state":"AR","zip":"72212","fullStreet":"11525 Cantrell Rd","latitude":"34.7939663","longitude":"-92.4010942"},
{"id":"243","name":"Chenal & Markham","street1":"12500 W Markham St","street2":"","phone":"(501) 228-0404","city":"Little Rock","state":"AR","zip":"72211","fullStreet":"12500 W Markham St","latitude":"34.75335612","longitude":"-92.41456816"},
{"id":"244","name":"Conway Commons","street1":"1115 E Oak St","street2":"","phone":"(501) 513-1122","city":"Conway","state":"AR","zip":"72032","fullStreet":"1115 E Oak St","latitude":"35.0908492","longitude":"-92.4137765"},
{"id":"245","name":"Downtown Bentonville","street1":"209 S Walton Blvd","street2":"","phone":"(479) 273-3100","city":"Bentonville","state":"AR","zip":"72712","fullStreet":"209 S Walton Blvd","latitude":"36.3708483","longitude":"-94.2209328"},
{"id":"246","name":"Harding University","street1":"2700 Harding University","street2":"","phone":"(501) 279-4364","city":"Searcy","state":"AR","zip":"72149","fullStreet":"2700 Harding University","latitude":"35.24909265","longitude":"-91.72621439"},
{"id":"247","name":"Hot Springs","street1":"100 Cornerstone Blvd","street2":"","phone":"(501) 520-0620","city":"Hot Springs","state":"AR","zip":"71913","fullStreet":"100 Cornerstone Blvd","latitude":"34.46038","longitude":"-93.0612732"},
{"id":"248","name":"Markham & University","street1":"6201 W Markham St","street2":"","phone":"(501) 663-8080","city":"Little Rock","state":"AR","zip":"72205","fullStreet":"6201 W Markham St","latitude":"34.75185263","longitude":"-92.34361027"},
{"id":"249","name":"Maumelle","street1":"113 Commons Dr","street2":"","phone":"(501) 851-1810","city":"Maumelle","state":"AR","zip":"72113","fullStreet":"113 Commons Dr","latitude":"34.84703718","longitude":"-92.40672555"},
{"id":"250","name":"McCain Boulevard","street1":"4320 E Mccain Blvd","street2":"","phone":"(501) 945-1818","city":"North Little Rock","state":"AR","zip":"72117","fullStreet":"4320 E Mccain Blvd","latitude":"34.78921538","longitude":"-92.21993109"},
{"id":"251","name":"McCain Mall","street1":"3929 Mccain Blvd","street2":"","phone":"(501) 758-8497","city":"North Little Rock","state":"AR","zip":"72116","fullStreet":"3929 Mccain Blvd","latitude":"34.7925952","longitude":"-92.2262302"},
{"id":"252","name":"North College Avenue","street1":"4180 N College Ave","street2":"","phone":"(479) 443-0343","city":"Fayetteville","state":"AR","zip":"72703","fullStreet":"4180 N College Ave","latitude":"36.1272025","longitude":"-94.1439718"},
{"id":"253","name":"Northwest Arkansas Mall","street1":"Highway 471","street2":"","phone":"(479) 443-0011","city":"Fayetteville","state":"AR","zip":"72703","fullStreet":"Highway 471","latitude":"36.11506826","longitude":"-94.04885095"},
{"id":"254","name":"Otter Creek","street1":"2 Bass Pro Dr","street2":"","phone":"(501) 455-2226","city":"Little Rock","state":"AR","zip":"72210","fullStreet":"2 Bass Pro Dr","latitude":"34.65703405","longitude":"-92.40871903"},
{"id":"255","name":"Ouachita Baptist University","street1":"410 Ouachita St","street2":"","phone":"(870) 245-5534","city":"Arkadelphia","state":"AR","zip":"71998","fullStreet":"410 Ouachita St","latitude":"34.1250946","longitude":"-93.0527929"},
{"id":"256","name":"Park Plaza","street1":"6000 W Markham St","street2":"","phone":"(501) 663-0304","city":"Little Rock","state":"AR","zip":"72205","fullStreet":"6000 W Markham St","latitude":"34.7535507","longitude":"-92.3431007"},
{"id":"257","name":"Pleasant Grove Road","street1":"2601 W Pleasant Grove Rd","street2":"","phone":"(479) 246-0003","city":"Rogers","state":"AR","zip":"72758","fullStreet":"2601 W Pleasant Grove Rd","latitude":"36.2837817","longitude":"-94.1523779"},
{"id":"258","name":"Razorback Road","street1":"1369 W Martin Luther King Blvd","street2":"","phone":"(479) 444-6570","city":"Fayetteville","state":"AR","zip":"72701","fullStreet":"1369 W Martin Luther King Blvd","latitude":"36.0562643","longitude":"-94.1798841"},
{"id":"259","name":"Reynolds Road","street1":"2232 N Reynolds Rd","street2":"","phone":"(501) 653-0404","city":"Bryant","state":"AR","zip":"72022","fullStreet":"2232 N Reynolds Rd","latitude":"34.61727256","longitude":"-92.4975309"},
{"id":"260","name":"Rogers Avenue","street1":"6810 Rogers Ave","street2":"","phone":"(479) 484-5152","city":"Fort Smith","state":"AR","zip":"72903","fullStreet":"6810 Rogers Ave","latitude":"35.35509173","longitude":"-94.35653179"},
{"id":"261","name":"Russellville","street1":"3089 E Main St","street2":"","phone":"(479) 967-0220","city":"Russellville","state":"AR","zip":"72802","fullStreet":"3089 E Main St","latitude":"35.2783485","longitude":"-93.0952375"},
{"id":"262","name":"Searcy In-Line DT","street1":"3683 E Race Ave","street2":"","phone":"(501) 268-0232","city":"Searcy","state":"AR","zip":"72143","fullStreet":"3683 E Race Ave","latitude":"35.25033465","longitude":"-91.69455061"},
{"id":"263","name":"Southern Arkansas University","street1":"100 E University","street2":"Bruce Center","phone":"(870) 235-4352","city":"Magnolia","state":"AR","zip":"71753","fullStreet":"100 E University Bruce Center","latitude":"33.2895949","longitude":"-93.2360548"},
{"id":"264","name":"Turtle Creek","street1":"1800 Red Wolf Blvd","street2":"","phone":"(870) 910-6611","city":"Jonesboro","state":"AR","zip":"72401","fullStreet":"1800 Red Wolf Blvd","latitude":"35.8231814","longitude":"-90.6682654"},
{"id":"265","name":"University of Arkansas - Pine Bluff","street1":"1301 L A Prexy Davis Dr","street2":"","phone":"(870) 575-8953","city":"Pine Bluff","state":"AR","zip":"71601","fullStreet":"1301 L A Prexy Davis Dr","latitude":"34.17716528","longitude":"-91.9031153"},
{"id":"266","name":"University of Arkansas-Fayetteville","street1":"435 N Garland Ave Ste 209","street2":"","phone":"(479) 575-2199","city":"Fayetteville","state":"AR","zip":"72701","fullStreet":"435 N Garland Ave Ste 209","latitude":"36.0687231","longitude":"-94.1759496"},
{"id":"267","name":"University of Central Arkansas","street1":"201 Donaghey Ave","street2":"Student Center","phone":"(501) 450-5980","city":"Conway","state":"AR","zip":"72035","fullStreet":"201 Donaghey Ave Student Center","latitude":"35.07876287","longitude":"-92.45735285"},
{"id":"268","name":"Wal-Mart Headquarters","street1":"805 Moberly Ln","street2":"David Glass Building","phone":"(479) 715-1423","city":"Bentonville","state":"AR","zip":"72716","fullStreet":"805 Moberly Ln David Glass Building","latitude":"36.361885","longitude":"-94.1806019"},
{"id":"269","name":"West Conway","street1":"2510 Prince St","street2":"","phone":"(501) 505-8645","city":"Conway","state":"AR","zip":"72034","fullStreet":"2510 Prince St","latitude":"35.0932404","longitude":"-92.4629642"},
{"id":"270","name":"West Walnut","street1":"4001 W Walnut St","street2":"","phone":"(479) 636-4664","city":"Rogers","state":"AR","zip":"72756","fullStreet":"4001 W Walnut St","latitude":"36.3354066","longitude":"-94.1753959"},
{"id":"271","name":"Whitaker Parkway","street1":"4893 W Pauline Whitaker Pkwy","street2":"","phone":"(479) 254-4004","city":"Rogers","state":"AR","zip":"72758","fullStreet":"4893 W Pauline Whitaker Pkwy","latitude":"36.29974579","longitude":"-94.13836576"},
{"id":"272","name":"Eastern and Ione","street1":"9925 S Eastern Ave","street2":"","phone":"7026846888","city":"Las Vegas","state":"NV","zip":"89183","fullStreet":"9925 S Eastern Ave","latitude":"36.0089908","longitude":"-115.1171773"},
{"id":"273","name":"Sahara at I-15","street1":"2480 S Rancho Dr","street2":"","phone":"(702) 252-4232","city":"Las Vegas","state":"NV","zip":"89102","fullStreet":"2480 S Rancho Dr","latitude":"36.1448419","longitude":"-115.1724179"},
{"id":"274","name":"South McCarran and 580","street1":"6365 S McCarran Blvd","street2":"","phone":"(775) 470-8333","city":"Reno","state":"NV","zip":"89509","fullStreet":"6365 S McCarran Blvd","latitude":"39.4773188","longitude":"-119.7920781"},
{"id":"275","name":"Sparks Blvd & I-80","street1":"1390 Big Fish Dr","street2":"","phone":"(775) 440-1828","city":"Sparks","state":"NV","zip":"89434","fullStreet":"1390 Big Fish Dr","latitude":"39.5316241","longitude":"-119.7162766"},
{"id":"276","name":"Stephanie at Warm Springs","street1":"460 N Stephanie St","street2":"","phone":"(702) 463-4004","city":"Henderson","state":"NV","zip":"89014","fullStreet":"460 N Stephanie St","latitude":"36.057617","longitude":"-115.0457615"},
{"id":"277","name":"Kalispell","street1":"35 Treeline Rd","street2":"","phone":"(406) 752-3710","city":"Kalispell","state":"MT","zip":"59901","fullStreet":"35 Treeline Rd","latitude":"48.238084","longitude":"-114.3313882"},
{"id":"278","name":"Ames","street1":"230 S Duff Ave","street2":"","phone":"(515) 232-2599","city":"Ames","state":"IA","zip":"50010","fullStreet":"230 S Duff Ave","latitude":"42.020454","longitude":"-93.6096905"},
{"id":"279","name":"Ankeny","street1":"2410 SE Delaware Avenue","street2":"","phone":"(515) 965-7786","city":"Ankeny","state":"IA","zip":"50021","fullStreet":"2410 SE Delaware Avenue","latitude":"41.7057225","longitude":"-93.582006"},
{"id":"280","name":"Coral Ridge Mall","street1":"1451 Coral Ridge Ave Ste 620","street2":"","phone":"(319) 625-2020","city":"Coralville","state":"IA","zip":"52241","fullStreet":"1451 Coral Ridge Ave Ste 620","latitude":"41.6911138","longitude":"-91.6006126"},
{"id":"281","name":"Davenport","street1":"2945 E 53rd St","street2":"","phone":"(563) 355-1742","city":"Davenport","state":"IA","zip":"52807","fullStreet":"2945 E 53rd St","latitude":"41.5747758","longitude":"-90.5319989"},
{"id":"282","name":"Dubuque","street1":"3500 Dodge St","street2":"","phone":"(563) 556-0423","city":"Dubuque","state":"IA","zip":"52003","fullStreet":"3500 Dodge St","latitude":"42.4896598","longitude":"-90.7221005"},
{"id":"283","name":"Jordan Creek Town Center","street1":"101 Jordan Creek Pkwy Ste 12508","street2":"","phone":"(515) 327-5033","city":"West Des Moines","state":"IA","zip":"50266","fullStreet":"101 Jordan Creek Pkwy Ste 12508","latitude":"41.5703043","longitude":"-93.8076592"},
{"id":"284","name":"Lindale","street1":"217 Collins Rd NE","street2":"","phone":"(319) 378-3200","city":"Cedar Rapids","state":"IA","zip":"52402","fullStreet":"217 Collins Rd NE","latitude":"42.0272449","longitude":"-91.6296054"},
{"id":"285","name":"Merle Hay","street1":"4040 Merle Hay Rd","street2":"","phone":"(515) 276-5222","city":"Des Moines","state":"IA","zip":"50310","fullStreet":"4040 Merle Hay Rd","latitude":"41.6353469","longitude":"-93.6999425"},
{"id":"286","name":"Mills Civic Parkway","street1":"6555 Mills Civic Pkwy","street2":"","phone":"(515) 223-6113","city":"West Des Moines","state":"IA","zip":"50266","fullStreet":"6555 Mills Civic Pkwy","latitude":"41.5625203","longitude":"-93.7981036"},
{"id":"287","name":"Northpark Mall (IA)","street1":"320 W Kimberly Rd","street2":"","phone":"(563) 391-2613","city":"Davenport","state":"IA","zip":"52806","fullStreet":"320 W Kimberly Rd","latitude":"41.56424009","longitude":"-90.57625645"},
{"id":"288","name":"Sergeant Road","street1":"4428 Sergeant Rd","street2":"","phone":"(712) 276-4233","city":"Sioux City","state":"IA","zip":"51106","fullStreet":"4428 Sergeant Rd","latitude":"42.44791784","longitude":"-96.34843136"},
{"id":"289","name":"Southern Hills Mall","street1":"4400 Sergeant Rd Ste 214","street2":"","phone":"(712) 276-3916","city":"Sioux City","state":"IA","zip":"51106","fullStreet":"4400 Sergeant Rd Ste 214","latitude":"42.44793634","longitude":"-96.34850002"},
{"id":"290","name":"University Ave (IA)","street1":"4502 University Ave","street2":"","phone":"(515) 457-3176","city":"West Des Moines","state":"IA","zip":"50266","fullStreet":"4502 University Ave","latitude":"41.5997412","longitude":"-93.7657669"},
{"id":"291","name":"Waterloo","street1":"1331 Flammang Dr","street2":"","phone":"(319) 233-0274","city":"Waterloo","state":"IA","zip":"50702","fullStreet":"1331 Flammang Dr","latitude":"42.46040342","longitude":"-92.3299837"},
{"id":"292","name":"Westdale","street1":"2610 Edgewood Rd SW","street2":"","phone":"(319) 396-3079","city":"Cedar Rapids","state":"IA","zip":"52404","fullStreet":"2610 Edgewood Rd SW","latitude":"41.9519634","longitude":"-91.7164744"},
{"id":"293","name":"Aberdeen","street1":"1001 Beards Hill Rd","street2":"","phone":"(410) 272-2297","city":"Aberdeen","state":"MD","zip":"21001","fullStreet":"1001 Beards Hill Rd","latitude":"39.5224563","longitude":"-76.1850354"},
{"id":"294","name":"Annapolis","street1":"2025 Somerville Rd","street2":"","phone":"(410) 266-0008","city":"Annapolis","state":"MD","zip":"21401","fullStreet":"2025 Somerville Rd","latitude":"38.9806969","longitude":"-76.5369583"},
{"id":"295","name":"Arundel Mills","street1":"7055 Arundel Mills Cir","street2":"","phone":"(410) 799-2812","city":"Hanover","state":"MD","zip":"21076","fullStreet":"7055 Arundel Mills Cir","latitude":"39.153237","longitude":"-76.7271025"},
{"id":"296","name":"Baltimore-Washington International Airport","street1":"Aviation Boulevard & Elm Road","street2":"A-B Core","phone":"(410) 859-8257","city":"Baltimore","state":"MD","zip":"21240","fullStreet":"Aviation Boulevard & Elm Road A-B Core","latitude":"39.17533288","longitude":"-76.67324691"},
{"id":"297","name":"Bowie","street1":"16503 Ballpark Rd","street2":"","phone":"(301) 860-1211","city":"Bowie","state":"MD","zip":"20716","fullStreet":"16503 Ballpark Rd","latitude":"38.94528087","longitude":"-76.71644433"},
{"id":"298","name":"Bowie Marketplace","street1":"15505 Annapolis Rd","street2":"Bowie Marketplace Shopping Center","phone":"(866) 232-2670","city":"Bowie","state":"MD","zip":"20715","fullStreet":"15505 Annapolis Rd Bowie Marketplace Shopping Center","latitude":"38.97871729","longitude":"-76.73695424"},
{"id":"299","name":"Brandywine","street1":"16003 Crain Hwy","street2":"","phone":"(301) 782-4033","city":"Brandywine","state":"MD","zip":"20613","fullStreet":"16003 Crain Hwy","latitude":"38.66873886","longitude":"-76.87634552"},
{"id":"300","name":"Canton Crossing","street1":"3809 Boston St","street2":"","phone":"(410) 276-0515","city":"Baltimore","state":"MD","zip":"21224","fullStreet":"3809 Boston St","latitude":"39.27713499","longitude":"-76.56180086"},
{"id":"301","name":"Capital Centre","street1":"1040 Shoppers Way","street2":"","phone":"(301) 333-1981","city":"Largo","state":"MD","zip":"20774","fullStreet":"1040 Shoppers Way","latitude":"38.87527467","longitude":"-76.77388448"},
{"id":"302","name":"Centre at Glen Burnie","street1":"6709 Ritchie Hwy","street2":"","phone":"(410) 590-9484","city":"Glen Burnie","state":"MD","zip":"21061","fullStreet":"6709 Ritchie Hwy","latitude":"39.1911968","longitude":"-76.612918"},
{"id":"303","name":"Centre at Salisbury","street1":"2300 N Salisbury Blvd Ste G115","street2":"","phone":"(410) 543-8535","city":"Salisbury","state":"MD","zip":"21801","fullStreet":"2300 N Salisbury Blvd Ste G115","latitude":"38.39810827","longitude":"-75.57171246"},
{"id":"304","name":"Clarksville","street1":"6395 10 Oaks Rd","street2":"","phone":"(410) 531-1930","city":"Clarksville","state":"MD","zip":"21029","fullStreet":"6395 10 Oaks Rd","latitude":"39.20559379","longitude":"-76.95296328"},
{"id":"305","name":"Columbia Mall (MD)","street1":"10300 Little Patuxent Pkwy Ste 1335","street2":"","phone":"(410) 730-9953","city":"Columbia","state":"MD","zip":"21044","fullStreet":"10300 Little Patuxent Pkwy Ste 1335","latitude":"39.2157783","longitude":"-76.8601014"},
{"id":"306","name":"Constant Friendship","street1":"408 Constant Friendship Blvd","street2":"","phone":"(410) 569-3153","city":"Abingdon","state":"MD","zip":"21009","fullStreet":"408 Constant Friendship Blvd","latitude":"39.4607394","longitude":"-76.3184711"},
{"id":"307","name":"Corridor Market Place","street1":"3366 Corridor Market Place","street2":"","phone":"(301) 483-6466","city":"Laurel","state":"MD","zip":"20724","fullStreet":"3366 Corridor Market Place","latitude":"39.0976475","longitude":"-76.8076767"},
{"id":"308","name":"Country Club Mall","street1":"1262 Vocke Rd Ste 284","street2":"","phone":"(301) 729-8073","city":"Cumberland","state":"MD","zip":"21502","fullStreet":"1262 Vocke Rd Ste 284","latitude":"39.6278414","longitude":"-78.8353438"},
{"id":"309","name":"Crofton","street1":"2691 Carver Rd","street2":"","phone":"(410) 721-2105","city":"Gambrills","state":"MD","zip":"21054","fullStreet":"2691 Carver Rd","latitude":"39.0224615","longitude":"-76.692778"},
{"id":"310","name":"District Heights","street1":"5502 Silver Hill Rd","street2":"","phone":"(301) 735-0602","city":"District Heights","state":"MD","zip":"20747","fullStreet":"5502 Silver Hill Rd","latitude":"38.85262734","longitude":"-76.91287486"},
{"id":"311","name":"Dobbin Center","street1":"6375 Dobbin Rd","street2":"","phone":"(410) 715-1103","city":"Columbia","state":"MD","zip":"21045","fullStreet":"6375 Dobbin Rd","latitude":"39.1976431","longitude":"-76.8185149"},
{"id":"312","name":"Easton","street1":"28632 Marlboro Ave","street2":"","phone":"(410) 820-6522","city":"Easton","state":"MD","zip":"21601","fullStreet":"28632 Marlboro Ave","latitude":"38.7817152","longitude":"-76.08397262"},
{"id":"313","name":"Eastpoint","street1":"7907 Eastern Ave","street2":"","phone":"(410) 288-2211","city":"Baltimore","state":"MD","zip":"21224","fullStreet":"7907 Eastern Ave","latitude":"39.295096","longitude":"-76.5097299"},
{"id":"314","name":"Edgewater (MD)","street1":"3220 Solomons Island Rd","street2":"","phone":"(410) 956-0402","city":"Edgewater","state":"MD","zip":"21037","fullStreet":"3220 Solomons Island Rd","latitude":"38.9323676","longitude":"-76.5681727"},
{"id":"315","name":"Eldersburg","street1":"6032 Sykesville Rd","street2":"","phone":"(410) 552-0353","city":"Eldersburg","state":"MD","zip":"21784","fullStreet":"6032 Sykesville Rd","latitude":"39.4097557","longitude":"-76.9508076"},
{"id":"316","name":"Elkton","street1":"1100 E Pulaski Hwy","street2":"","phone":"(410) 392-9494","city":"Elkton","state":"MD","zip":"21921","fullStreet":"1100 E Pulaski Hwy","latitude":"39.6049893","longitude":"-75.7899014"},
{"id":"317","name":"Executive Park Drive","street1":"4905 Executive Park Dr","street2":"","phone":"(410) 992-0204","city":"Columbia","state":"MD","zip":"21045","fullStreet":"4905 Executive Park Dr","latitude":"39.2351398","longitude":"-76.8147895"},
{"id":"318","name":"First Colony Center","street1":"45150 First Colony Way","street2":"","phone":"(301) 862-1018","city":"California","state":"MD","zip":"20619","fullStreet":"45150 First Colony Way","latitude":"38.29731359","longitude":"-76.51829215"},
{"id":"319","name":"Forest Hill","street1":"1980 Rock Spring Rd","street2":"","phone":"(410) 838-3333","city":"Forest Hill","state":"MD","zip":"21050","fullStreet":"1980 Rock Spring Rd","latitude":"39.5705856","longitude":"-76.381943"},
{"id":"320","name":"Foundry Row","street1":"10170 Reisterstown Rd","street2":"","phone":"(410) 363-3014","city":"Owings Mills","state":"MD","zip":"21117","fullStreet":"10170 Reisterstown Rd","latitude":"39.4126574","longitude":"-76.7714704"},
{"id":"321","name":"Frederick (MD)","street1":"5501 Urbana Pike","street2":"","phone":"(301) 668-5353","city":"Frederick","state":"MD","zip":"21704","fullStreet":"5501 Urbana Pike","latitude":"39.3828718","longitude":"-77.4001642"},
{"id":"322","name":"Frederick North","street1":"2401 Monocacy Blvd","street2":"","phone":"(240) 529-1400","city":"Frederick","state":"MD","zip":"21701","fullStreet":"2401 Monocacy Blvd","latitude":"39.45212747","longitude":"-77.39011544"},
{"id":"323","name":"Frostburg State University","street1":"Stadium Road","street2":"Lane Center","phone":"(301) 687-3216","city":"Frostburg","state":"MD","zip":"21532","fullStreet":"Stadium Road Lane Center","latitude":"39.65583871","longitude":"-78.95940172"},
{"id":"324","name":"Germantown Town Center","street1":"19945 Century Blvd","street2":"","phone":"(240) 686-1110","city":"Germantown","state":"MD","zip":"20874","fullStreet":"19945 Century Blvd","latitude":"39.1824361","longitude":"-77.2611646"},
{"id":"325","name":"Hagerstown","street1":"1680 Wesel Blvd","street2":"","phone":"(301) 393-3755","city":"Hagerstown","state":"MD","zip":"21740","fullStreet":"1680 Wesel Blvd","latitude":"39.6320556","longitude":"-77.7604202"},
{"id":"326","name":"Hunt Valley Towne Centre","street1":"6 Hyland Ave","street2":"","phone":"(410) 771-1237","city":"Hunt Valley","state":"MD","zip":"21030","fullStreet":"6 Hyland Ave","latitude":"39.4967692","longitude":"-76.6514427"},
{"id":"327","name":"Ingleside","street1":"5668 Baltimore National Pike","street2":"","phone":"(410) 788-4063","city":"Catonsville","state":"MD","zip":"21228","fullStreet":"5668 Baltimore National Pike","latitude":"39.2887443","longitude":"-76.7308594"},
{"id":"328","name":"Inner Harbor In-Line","street1":"400 E Pratt St","street2":"","phone":"(410) 244-6120","city":"Baltimore","state":"MD","zip":"21202","fullStreet":"400 E Pratt St","latitude":"39.2870392","longitude":"-76.6093155"},
{"id":"329","name":"Johns Hopkins Road","street1":"10975 Johns Hopkins Rd","street2":"","phone":"(301) 497-4497","city":"Laurel","state":"MD","zip":"20723","fullStreet":"10975 Johns Hopkins Rd","latitude":"39.1586722","longitude":"-76.8939685"},
{"id":"330","name":"Joppa Road","street1":"2008 E Joppa Rd","street2":"","phone":"(410) 668-2444","city":"Parkville","state":"MD","zip":"21234","fullStreet":"2008 E Joppa Rd","latitude":"39.3993339","longitude":"-76.5439884"},
{"id":"331","name":"Kent Island","street1":"1845 Main St","street2":"","phone":"(410) 643-6907","city":"Chester","state":"MD","zip":"21619","fullStreet":"1845 Main St","latitude":"38.97320603","longitude":"-76.27346813"},
{"id":"332","name":"Kentlands Square In-Line","street1":"104 Main St","street2":"","phone":"(240) 631-9013","city":"Gaithersburg","state":"MD","zip":"20878","fullStreet":"104 Main St","latitude":"39.1257819","longitude":"-77.2375458"},
{"id":"333","name":"La Plata","street1":"107 Drury Dr","street2":"","phone":"(301) 934-3822","city":"La Plata","state":"MD","zip":"20646","fullStreet":"107 Drury Dr","latitude":"38.54645584","longitude":"-76.98373907"},
{"id":"334","name":"Lansdowne Station","street1":"3599 Washington Blvd","street2":"","phone":"(410) 737-8171","city":"Baltimore","state":"MD","zip":"21227","fullStreet":"3599 Washington Blvd","latitude":"39.2499694","longitude":"-76.6693459"},
{"id":"335","name":"Laurel","street1":"13600 Baltimore Ave Ste 600","street2":"","phone":"(301) 483-6441","city":"Laurel","state":"MD","zip":"20707","fullStreet":"13600 Baltimore Ave Ste 600","latitude":"39.0763175","longitude":"-76.86841807"},
{"id":"336","name":"Linthicum","street1":"1610 W Nursery Rd","street2":"","phone":"(410) 859-2300","city":"Linthicum Heights","state":"MD","zip":"21090","fullStreet":"1610 W Nursery Rd","latitude":"39.2020852","longitude":"-76.6825408"},
{"id":"337","name":"Marley Station","street1":"7900 Ritchie Hwy Spc E-113","street2":"","phone":"(410) 760-6327","city":"Glen Burnie","state":"MD","zip":"21061","fullStreet":"7900 Ritchie Hwy Spc E-113","latitude":"39.1385388","longitude":"-76.605981"},
{"id":"338","name":"Martin Plaza","street1":"1202 Martin Blvd","street2":"","phone":"(410) 686-5858","city":"Middle River","state":"MD","zip":"21220","fullStreet":"1202 Martin Blvd","latitude":"39.3342548","longitude":"-76.4500973"},
{"id":"339","name":"Montrose Crossing In-Line","street1":"12001 Rockville Pike","street2":"","phone":"(301) 881-1726","city":"Rockville","state":"MD","zip":"20852","fullStreet":"12001 Rockville Pike","latitude":"39.0539306","longitude":"-77.1162287"},
{"id":"340","name":"Morgan State University","street1":"1700 E Cold Spring Ln","street2":"Student Center","phone":"(443) 885-3327","city":"Baltimore","state":"MD","zip":"21251","fullStreet":"1700 E Cold Spring Ln Student Center","latitude":"39.34539855","longitude":"-76.58110729"},
{"id":"341","name":"North Pointe Plaza (MD)","street1":"2736 N Salisbury Blvd","street2":"","phone":"(410) 543-0206","city":"Salisbury","state":"MD","zip":"21801","fullStreet":"2736 N Salisbury Blvd","latitude":"38.38047079","longitude":"-75.64147567"},
{"id":"342","name":"Nottingham Square","street1":"5198 Campbell Blvd","street2":"","phone":"(410) 931-0031","city":"Baltimore","state":"MD","zip":"21236","fullStreet":"5198 Campbell Blvd","latitude":"39.3708013","longitude":"-76.4545263"},
{"id":"343","name":"Olney","street1":"18115 Georgia Ave","street2":"","phone":"(301) 804-9363","city":"Olney","state":"MD","zip":"20832","fullStreet":"18115 Georgia Ave","latitude":"39.1536608","longitude":"-77.0662865"},
{"id":"344","name":"Owings Mills Square","street1":"10480 Owings Mills Blvd","street2":"","phone":"(443) 394-6070","city":"Owings Mills","state":"MD","zip":"21117","fullStreet":"10480 Owings Mills Blvd","latitude":"39.4210973","longitude":"-76.7783968"},
{"id":"345","name":"Pasadena Crossroads","street1":"8110 Jumpers Hole Rd","street2":"","phone":"(410) 760-2697","city":"Pasadena","state":"MD","zip":"21122","fullStreet":"8110 Jumpers Hole Rd","latitude":"39.1247426","longitude":"-76.5904646"},
{"id":"346","name":"Perry Hall Shopping Center","street1":"8867 Belair Rd","street2":"","phone":"(410) 248-1400","city":"Baltimore","state":"MD","zip":"21236","fullStreet":"8867 Belair Rd","latitude":"39.3972065","longitude":"-76.4814106"},
{"id":"347","name":"Quarterfield Crossing","street1":"7831 Quarterfield Park Road","street2":"","phone":"(410) 969-8272","city":"Severn","state":"MD","zip":"21144","fullStreet":"7831 Quarterfield Park Road","latitude":"39.143605","longitude":"-76.6481128"},
{"id":"348","name":"Queen City Centre","street1":"221 Williams St","street2":"","phone":"(301) 722-0086","city":"Cumberland","state":"MD","zip":"21502","fullStreet":"221 Williams St","latitude":"39.6480367","longitude":"-78.75590438"},
{"id":"349","name":"Reisterstown","street1":"12001 Reisterstown Rd","street2":"","phone":"(410) 526-3863","city":"Reisterstown","state":"MD","zip":"21136","fullStreet":"12001 Reisterstown Rd","latitude":"39.4495735","longitude":"-76.8168245"},
{"id":"350","name":"Salisbury University","street1":"1101 Camden Ave","street2":"Guerrier Student Center","phone":"(410) 677-6771","city":"Salisbury","state":"MD","zip":"21801","fullStreet":"1101 Camden Ave Guerrier Student Center","latitude":"38.3497705","longitude":"-75.60738523"},
{"id":"351","name":"Severna Park","street1":"511 Ritchie Hwy","street2":"","phone":"(410) 647-6232","city":"Severna Park","state":"MD","zip":"21146","fullStreet":"511 Ritchie Hwy","latitude":"39.0800628","longitude":"-76.5473825"},
{"id":"352","name":"Silver Spring In-Line","street1":"825 Ellsworth Dr Lot D1-A","street2":"","phone":"(301) 588-2915","city":"Silver Spring","state":"MD","zip":"20910","fullStreet":"825 Ellsworth Dr Lot D1-A","latitude":"38.997195","longitude":"-77.0253413"},
{"id":"353","name":"St. Agnes Hospital","street1":"900 Caton Ave","street2":"","phone":"(410) 368-2156","city":"Baltimore","state":"MD","zip":"21229","fullStreet":"900 Caton Ave","latitude":"39.2716014","longitude":"-76.6731253"},
{"id":"354","name":"St. Charles Towne Center Mall","street1":"11110 Mall Cir","street2":"PO Box 6134","phone":"(301) 705-8066","city":"Waldorf","state":"MD","zip":"20603","fullStreet":"11110 Mall Cir PO Box 6134","latitude":"38.62938629","longitude":"-76.97694304"},
{"id":"355","name":"Steeplechase","street1":"9121 Alaking Ct","street2":"","phone":"3013249515","city":"Capitol Heights","state":"MD","zip":"20743","fullStreet":"9121 Alaking Ct","latitude":"38.88393141","longitude":"-76.89342004"},
{"id":"356","name":"Tech Rd. Silver Spring In-Line","street1":"12289 Tech Rd","street2":"","phone":"(301) 960-1195","city":"Silver Spring","state":"MD","zip":"20904","fullStreet":"12289 Tech Rd","latitude":"39.0573212","longitude":"-76.9669927"},
{"id":"357","name":"TownMall of Westminster","street1":"400 N Center St Ste 243","street2":"","phone":"(410) 876-3525","city":"Westminster","state":"MD","zip":"21157","fullStreet":"400 N Center St Ste 243","latitude":"39.5800392","longitude":"-76.9830475"},
{"id":"358","name":"Towson Town Center","street1":"825 Dulaney Valley Rd Ste 3285","street2":"","phone":"(410) 296-4950","city":"Towson","state":"MD","zip":"21204","fullStreet":"825 Dulaney Valley Rd Ste 3285","latitude":"39.4033089","longitude":"-76.5992066"},
{"id":"359","name":"Towson University","street1":"8000 York Rd","street2":"","phone":"(410) 704-5403","city":"Towson","state":"MD","zip":"21252","fullStreet":"8000 York Rd","latitude":"39.3948219","longitude":"-76.6108853"},
{"id":"360","name":"University of Maryland- Baltimore County","street1":"1000 Hilltop Cir","street2":"University Center","phone":"(443) 612-8390","city":"Baltimore","state":"MD","zip":"21250","fullStreet":"1000 Hilltop Cir University Center","latitude":"39.25561054","longitude":"-76.71117929"},
{"id":"361","name":"University of Maryland-College Park","street1":"3972 Campus Dr","street2":"Stamp Union Food Court","phone":"(301) 314-6568","city":"College Park","state":"MD","zip":"20742","fullStreet":"3972 Campus Dr Stamp Union Food Court","latitude":"38.98962965","longitude":"-76.94568975"},
{"id":"362","name":"Vista Gardens Marketplace","street1":"10631 Martin Luther King Jr Hwy","street2":"","phone":"(301) 805-9880","city":"Bowie","state":"MD","zip":"20720","fullStreet":"10631 Martin Luther King Jr Hwy","latitude":"38.98224291","longitude":"-76.78265662"},
{"id":"363","name":"Waldorf","street1":"3365 Crain Hwy","street2":"","phone":"(301) 632-9776","city":"Waldorf","state":"MD","zip":"20603","fullStreet":"3365 Crain Hwy","latitude":"38.62045203","longitude":"-76.9169804"},
{"id":"364","name":"Waugh Chapel","street1":"2615 Brandermill Blvd","street2":"","phone":"(410) 451-7166","city":"Gambrills","state":"MD","zip":"21054","fullStreet":"2615 Brandermill Blvd","latitude":"39.0375457","longitude":"-76.6787074"},
{"id":"365","name":"West Ocean City","street1":"12901 Ocean Gateway","street2":"","phone":"(410) 213-1825","city":"Ocean City","state":"MD","zip":"21842","fullStreet":"12901 Ocean Gateway","latitude":"38.37280617","longitude":"-75.09107343"},
{"id":"366","name":"Westfield Annapolis Mall","street1":"1035 Annapolis Mall","street2":"","phone":"(410) 266-8680","city":"Annapolis","state":"MD","zip":"21401","fullStreet":"1035 Annapolis Mall","latitude":"38.99192247","longitude":"-76.54644118"},
{"id":"367","name":"Westfield Montgomery Mall (MD)","street1":"7101 Democracy Blvd Spc 2122","street2":"","phone":"(301) 365-6764","city":"Bethesda","state":"MD","zip":"20817","fullStreet":"7101 Democracy Blvd Spc 2122","latitude":"39.0243576","longitude":"-77.1458639"},
{"id":"368","name":"Westminster","street1":"144 Englar Rd","street2":"","phone":"(410) 871-2752","city":"Westminster","state":"MD","zip":"21157","fullStreet":"144 Englar Rd","latitude":"39.5826219","longitude":"-76.9897368"},
{"id":"369","name":"White Marsh Mall","street1":"8200 Perry Hall Blvd","street2":"","phone":"(410) 931-8642","city":"Baltimore","state":"MD","zip":"21236","fullStreet":"8200 Perry Hall Blvd","latitude":"39.3752516","longitude":"-76.467697"},
{"id":"370","name":"York Road","street1":"10142 York Rd","street2":"","phone":"(410) 667-1994","city":"Cockeysville","state":"MD","zip":"21030","fullStreet":"10142 York Rd","latitude":"39.4659203","longitude":"-76.6377228"},
{"id":"371","name":"124th and Capitol","street1":"12625 W Capitol Dr","street2":"","phone":"(262) 373-0609","city":"Brookfield","state":"WI","zip":"53005","fullStreet":"12625 W Capitol Dr","latitude":"43.0884731","longitude":"-88.0688141"},
{"id":"372","name":"Brookfield Square","street1":"1 N Moorland Rd","street2":"","phone":"(262) 786-2443","city":"Brookfield","state":"WI","zip":"53005","fullStreet":"1 N Moorland Rd","latitude":"43.0317362","longitude":"-88.1073399"},
{"id":"373","name":"Drexel Town Square","street1":"150 W Town Square Way","street2":"","phone":"(414) 571-0048","city":"Oak Creek","state":"WI","zip":"53154","fullStreet":"150 W Town Square Way","latitude":"42.900514","longitude":"-87.9137862"},
{"id":"374","name":"East Madison","street1":"4212 E Washington Ave","street2":"","phone":"(608) 245-2045","city":"Madison","state":"WI","zip":"53704","fullStreet":"4212 E Washington Ave","latitude":"43.12078179","longitude":"-89.31880721"},
{"id":"375","name":"Greendale","street1":"5351 S 76th St","street2":"","phone":"(414) 423-0853","city":"Greendale","state":"WI","zip":"53129","fullStreet":"5351 S 76th St","latitude":"42.9479411","longitude":"-88.0090518"},
{"id":"376","name":"Racine","street1":"5315 Washington Ave","street2":"","phone":"(262) 632-0173","city":"Mount Pleasant","state":"WI","zip":"53406","fullStreet":"5315 Washington Ave","latitude":"42.71870652","longitude":"-87.84263746"},
{"id":"377","name":"West Allis Center","street1":"2645 S 108th St","street2":"","phone":"(414) 327-4885","city":"West Allis","state":"WI","zip":"53227","fullStreet":"2645 S 108th St","latitude":"42.99629991","longitude":"-88.04710143"},
{"id":"378","name":"West Towne","street1":"430 S Gammon Rd","street2":"","phone":"(608) 833-4344","city":"Madison","state":"WI","zip":"53719","fullStreet":"430 S Gammon Rd","latitude":"43.059005","longitude":"-89.50290586"},
{"id":"379","name":"Dell Range","street1":"4435 Windmill Rd","street2":"","phone":"(307) 638-4444","city":"Cheyenne","state":"WY","zip":"82009","fullStreet":"4435 Windmill Rd","latitude":"41.159595","longitude":"-104.7792218"},
{"id":"380","name":"Frontier Mall","street1":"1400 Dell Range Blvd Spc 89","street2":"","phone":"(307) 632-7801","city":"Cheyenne","state":"WY","zip":"82009","fullStreet":"1400 Dell Range Blvd Spc 89","latitude":"41.1620968","longitude":"-104.8053834"},
{"id":"381","name":"Capitol Hill East","street1":"1401 Maryland Ave NE","street2":"","phone":"","city":"Washington","state":"DC","zip":"20002","fullStreet":"1401 Maryland Ave NE","latitude":"38.8991146","longitude":"-76.9851976"},
{"id":"382","name":"Capitol Hill East Drive-Thru Only","street1":"1401 Maryland Ave NE","street2":"","phone":"(202) 388-3500","city":"Washington","state":"DC","zip":"20002","fullStreet":"1401 Maryland Ave NE","latitude":"38.8991146","longitude":"-76.9851976"},
{"id":"383","name":"Catholic University","street1":"620 Michigan Ave Ne","street2":"","phone":"(202) 319-6874","city":"Washington","state":"DC","zip":"20064","fullStreet":"620 Michigan Ave Ne","latitude":"38.9328295","longitude":"-76.9978642"},
{"id":"384","name":"DC USA In-Line","street1":"3100 14th St NW","street2":"","phone":"(202) 986-3290","city":"Washington","state":"DC","zip":"20010","fullStreet":"3100 14th St NW","latitude":"38.9293082","longitude":"-77.032986"},
{"id":"385","name":"George Washington University","street1":"2121 H St Nw","street2":"District House","phone":"(202) 250-5140","city":"Washington","state":"DC","zip":"20052","fullStreet":"2121 H St Nw District House","latitude":"38.899884","longitude":"-77.0478525"},
{"id":"386","name":"Georgetown University","street1":"3800 Reservoir Rd Nw","street2":"Hoya Commons Food Court","phone":"(856) 295-3180","city":"Washington","state":"DC","zip":"20007","fullStreet":"3800 Reservoir Rd Nw Hoya Commons Food Court","latitude":"38.9118055","longitude":"-77.0760841"},
{"id":"387","name":"Reagan Washington National Airport","street1":"1 Aviation Cir","street2":"","phone":"","city":"Washington","state":"DC","zip":"20001","fullStreet":"1 Aviation Cir","latitude":"38.9108161","longitude":"-77.01791359"},
{"id":"388","name":"Ronald Reagan Washington National Airport","street1":"1 Aviation Cir","street2":"","phone":"(703) 418-1500","city":"Washington","state":"DC","zip":"20001","fullStreet":"1 Aviation Cir","latitude":"38.9108161","longitude":"-77.01791359"},
{"id":"389","name":"Tenleytown In-Line","street1":"4505 Wisconsin Ave NW","street2":"","phone":"(202) 244-4514","city":"Washington","state":"DC","zip":"20016","fullStreet":"4505 Wisconsin Ave NW","latitude":"38.9482939","longitude":"-77.0794735"},
{"id":"390","name":"Union Station","street1":"50 Massachusetts Ave Ne","street2":"","phone":"(202) 838-0205","city":"Washington","state":"DC","zip":"20002","fullStreet":"50 Massachusetts Ave Ne","latitude":"38.8975463","longitude":"-77.0061814"},
{"id":"391","name":"89th & Shea","street1":"10652 N 89th Pl","street2":"","phone":"(480) 404-6798","city":"Scottsdale","state":"AZ","zip":"85260","fullStreet":"10652 N 89th Pl","latitude":"33.5831035","longitude":"-111.8887518"},
{"id":"392","name":"Ahwatukee Foothills Town Center","street1":"5035 E Ray Rd","street2":"","phone":"(480) 961-6006","city":"Phoenix","state":"AZ","zip":"85044","fullStreet":"5035 E Ray Rd","latitude":"33.31914847","longitude":"-111.974787"},
{"id":"393","name":"Arcadia","street1":"4105 N 44th St","street2":"","phone":"(602) 840-4566","city":"Phoenix","state":"AZ","zip":"85018","fullStreet":"4105 N 44th St","latitude":"33.4951657","longitude":"-111.9862229"},
{"id":"394","name":"Arizona & Ocotillo","street1":"3871 S Arizona Ave","street2":"","phone":"(480) 895-2002","city":"Chandler","state":"AZ","zip":"85248","fullStreet":"3871 S Arizona Ave","latitude":"33.24964807","longitude":"-111.8412243"},
{"id":"395","name":"Arizona State University","street1":"1290 S Normal Ave","street2":"Memorial Union Building","phone":"(480) 727-7619","city":"Tempe","state":"AZ","zip":"85281","fullStreet":"1290 S Normal Ave Memorial Union Building","latitude":"33.4174158","longitude":"-111.9338547"},
{"id":"396","name":"Arizona State University - Downtown","street1":"120 E Taylor St","street2":"","phone":"(602) 496-6715","city":"Phoenix","state":"AZ","zip":"85004","fullStreet":"120 E Taylor St","latitude":"33.45349326","longitude":"-112.0722801"},
{"id":"397","name":"Arizona State University - West Campus","street1":"4701 W Thunderbird Rd","street2":"Poly-West Campus","phone":"(602) 543-3663","city":"Glendale","state":"AZ","zip":"85306","fullStreet":"4701 W Thunderbird Rd Poly-West Campus","latitude":"33.60726342","longitude":"-112.1600202"},
{"id":"398","name":"Arrowhead","street1":"16657 N 83rd Ave","street2":"","phone":"(623) 878-0885","city":"Peoria","state":"AZ","zip":"85382","fullStreet":"16657 N 83rd Ave","latitude":"33.6358994","longitude":"-112.2326745"},
{"id":"399","name":"Avondale","street1":"10180 W Mcdowell Rd","street2":"","phone":"(623) 907-4780","city":"Avondale","state":"AZ","zip":"85392","fullStreet":"10180 W Mcdowell Rd","latitude":"33.4652236","longitude":"-112.2789727"},
{"id":"400","name":"Camelback & 16th Street","street1":"1601 E Camelback Rd","street2":"","phone":"(602) 264-4450","city":"Phoenix","state":"AZ","zip":"85016","fullStreet":"1601 E Camelback Rd","latitude":"33.5086254","longitude":"-112.0471902"},
{"id":"401","name":"Casa Grande","street1":"893 N Promenade Pkwy","street2":"","phone":"(520) 876-9001","city":"Casa Grande","state":"AZ","zip":"85194","fullStreet":"893 N Promenade Pkwy","latitude":"32.89843456","longitude":"-111.6260758"},
{"id":"402","name":"Chandler Festival","street1":"2550 W Chandler Blvd","street2":"","phone":"(480) 855-1555","city":"Chandler","state":"AZ","zip":"85224","fullStreet":"2550 W Chandler Blvd","latitude":"33.3064633","longitude":"-111.8889624"},
{"id":"403","name":"Crossroads Towne Center","street1":"2900 E Germann Rd","street2":"","phone":"(480) 812-1717","city":"Chandler","state":"AZ","zip":"85286","fullStreet":"2900 E Germann Rd","latitude":"33.2818149","longitude":"-111.7903027"},
{"id":"404","name":"Deer Valley","street1":"3001 W Agua Fria Fwy","street2":"","phone":"(623) 581-3277","city":"Phoenix","state":"AZ","zip":"85027","fullStreet":"3001 W Agua Fria Fwy","latitude":"33.6677474","longitude":"-112.1228805"},
{"id":"405","name":"El Con","street1":"3605 E Broadway Blvd","street2":"","phone":"(520) 321-4232","city":"Tucson","state":"AZ","zip":"85716","fullStreet":"3605 E Broadway Blvd","latitude":"32.2221532","longitude":"-110.9158672"},
{"id":"406","name":"Flagstaff","street1":"1000 S Milton Rd","street2":"","phone":"(928) 779-9111","city":"Flagstaff","state":"AZ","zip":"86001","fullStreet":"1000 S Milton Rd","latitude":"35.190888","longitude":"-111.6604995"},